countrynum,statenum,route,routename,active,latitude,longitude,stratum,bcr,landtypeid,routetypeid,routetypedetailid
840,2,1,ST FLORIAN,1,34.869,-87.604,14,27,0,1,1
840,2,2,HILLSBORO,0,34.639,-87.191,14,24,0,1,1
840,2,3,FLORENCE,0,34.800,-87.733,14,24,0,1,1
840,2,4,TRADE,1,34.030,-87.059,13,28,0,1,1
840,2,5,SUMMITT,0,34.202,-86.493,13,28,0,1,1
840,2,6,VALHERMOSO SPGS,0,34.501,-86.686,14,24,0,1,1
840,2,7,SWAIM,1,34.868,-86.203,14,24,0,1,1
840,2,8,PINE GROVE,1,34.028,-85.711,13,28,0,1,1
840,2,9,DAWSON,0,34.304,-85.927,13,28,0,1,1
840,2,10,MILLERVILLE,1,33.191,-85.926,11,29,0,1,1
840,2,11,DEARMANVILLE,0,33.626,-85.752,13,28,0,1,1
840,2,12,SUNNY EVE,1,33.608,-85.751,13,28,0,1,1
840,2,13,GREENSPORT,1,33.812,-86.115,13,28,0,1,1
840,2,14,SMYER LAKE,1,33.455,-86.601,13,28,0,1,1
840,2,15,MT OLIVE,1,33.682,-86.872,13,28,0,1,1
840,2,16,HOWARD,1,33.848,-87.589,13,27,0,1,1
840,2,17,MAYTOWN,1,33.526,-87.004,13,28,0,1,1
840,2,18,MARVEL,0,33.150,-87.000,4,28,0,1,1
840,2,19,LIBERTY,1,33.477,-88.171,4,27,0,1,1
840,2,20,RIDERWOOD,1,32.131,-88.317,4,27,0,1,1
840,2,21,LINDEN,1,32.278,-87.836,4,27,0,1,1
840,2,22,HARRELL,1,32.443,-87.216,4,27,0,1,1
840,2,23,GREENSBORO,1,32.785,-87.515,4,27,0,1,1
840,2,24,SPRAGUE,1,32.131,-86.275,4,27,0,1,1
840,2,25,BILLINGSLEY,1,32.659,-86.702,4,27,0,1,1
840,2,26,WALLSBORO,1,32.589,-86.131,4,27,0,1,1
840,2,27,WARRIOR STD,1,32.312,-85.553,4,27,0,1,1
840,2,28,LANETT,1,32.885,-85.204,11,29,0,1,1
840,2,29,COTTONTON,1,32.147,-85.063,4,27,0,1,1
840,2,30,NEWTON,1,31.339,-85.590,4,27,0,1,1
840,2,31,GRANGEBURG,1,31.008,-85.211,4,27,0,1,1
840,2,32,BRUNDIDGE,1,31.717,-85.816,4,27,0,1,1
840,2,33,BRANTLEY,1,31.586,-86.250,4,27,0,1,1
840,2,34,SOUTH,1,31.444,-86.613,4,27,0,1,1
840,2,35,MCLELLAN,1,30.998,-86.886,4,27,0,1,1
840,2,36,BEATRICE,1,31.740,-87.209,4,27,0,1,1
840,2,37,LATHAM,0,31.097,-87.832,4,27,0,1,1
840,2,38,CASTLEBERRY,1,31.318,-87.120,4,27,0,1,1
840,2,39,MILLRY,1,31.633,-88.313,4,27,0,1,1
840,2,40,DAUPHIN IS,0,30.254,-88.113,3,27,0,1,1
840,2,41,ALABAMA PT,0,30.282,-87.518,3,27,0,1,1
840,2,42,FOLEY,0,30.370,-87.683,3,27,0,1,1
840,2,43,BLOCTON,1,33.116,-87.101,13,27,0,1,1
840,2,44,BIRMINGHAM,0,33.591,-86.697,13,28,0,1,1
840,2,45,WHITEHOUSE,1,34.131,-87.762,4,27,0,1,1
840,2,46,GUNTERSVILLE,1,34.314,-86.477,13,28,0,1,1
840,2,47,JENA,1,33.138,-87.821,4,27,0,1,1
840,2,48,EPES,1,32.681,-88.123,4,27,0,1,1
840,2,49,WEDGEWORTH,1,32.806,-87.764,4,27,0,1,1
840,2,50,WHITEHALL,1,32.328,-86.712,4,27,0,1,1
840,2,51,LIBERTY CITY,1,32.582,-85.716,11,29,0,1,1
840,2,52,ESCATAWPA,1,31.293,-88.385,4,27,0,1,1
840,2,53,GROVE HILL,1,31.710,-87.777,4,27,0,1,1
840,2,54,FAIRVIEW,1,31.222,-86.099,4,27,0,1,1
840,2,55,ELAMVILLE,1,31.668,-85.651,4,27,0,1,1
840,2,56,CHILDERSBURG,0,33.457,-86.257,13,28,0,1,1
840,2,57,YOUNGTOWN,1,34.424,-87.391,13,28,0,1,1
840,2,58,MENTONE,1,34.581,-85.566,13,28,0,1,1
840,2,59,CARROLLTON,1,33.281,-88.009,4,27,0,1,1
840,2,60,HOLT,1,33.264,-87.424,4,27,0,1,1
840,2,61,ODENVILLE,1,33.719,-86.446,13,28,0,1,1
840,2,62,BORDEN SPRNG,0,33.928,-85.468,11,28,0,1,1
840,2,63,ROCK CHAPEL,1,32.413,-87.538,4,27,0,1,1
840,2,64,NIXBURG,0,32.822,-86.112,11,29,0,1,1
840,2,65,CALEBEE,1,32.434,-85.871,4,27,0,1,1
840,2,66,APPLETON,1,31.228,-87.065,4,27,0,1,1
840,2,67,MT. GILEAD,1,31.409,-86.270,4,27,0,1,1
840,2,68,MADRID,1,31.032,-85.412,4,27,0,1,1
840,2,69,GEORGETOWN,1,30.942,-88.352,4,27,0,1,1
840,2,70,BON SECOUR,1,30.304,-87.730,3,27,0,1,1
840,2,71,WHEELER DAM,1,34.796,-87.384,14,24,0,1,1
840,2,72,ELKMONT,1,34.929,-86.989,14,24,0,1,1
840,2,73,WOODVILLE,1,34.990,-86.067,21,28,0,1,1
840,2,102,COURTLAND,1,34.603,-87.254,14,24,0,1,1
840,2,105,BROOKSVILLE,1,34.213,-86.473,13,28,0,1,1
840,2,106,VALHERMOSO SPG 2,1,34.501,-86.686,14,24,0,1,1
840,2,109,LAKEVIEW,1,34.309,-85.932,13,28,0,1,1
840,2,111,CHOCCOLOCCO,1,33.630,-85.747,13,28,0,1,1
840,2,137,LATHAM 2,1,31.071,-87.835,4,27,0,1,1
840,2,140,DAUPHIN IS 2,1,30.248,-88.112,3,27,0,1,1
840,2,141,ALABAMA PT 2,1,30.282,-87.518,3,27,0,1,1
840,2,142,ELBERTA,1,30.370,-87.602,3,27,0,1,1
840,2,156,KYMULGA,1,33.291,-86.331,13,28,0,1,1
840,2,162,Borden Springs 2,1,33.941,-85.450,11,28,0,1,1
840,2,164,NIXBURG 2,1,32.822,-86.112,11,29,0,1,1
840,2,201,VINA,1,34.288,-88.068,4,27,0,1,1
840,2,203,CARTER GROVE,1,34.822,-86.660,14,24,0,1,1
840,2,204,STEVENSON,1,34.758,-85.859,13,28,0,1,1
840,2,205,VERNON,1,33.685,-88.167,4,27,0,1,1
840,2,206,JASPER,0,33.817,-87.138,13,28,0,1,1
840,2,207,ONEONTA,1,33.856,-86.381,13,28,0,1,1
840,2,208,TALLADEGA,1,33.318,-86.157,13,28,0,1,1
840,2,209,WEDOWEE,1,33.184,-85.465,11,29,0,1,1
840,2,210,GASTONBURG,1,32.193,-87.379,4,27,0,1,1
840,2,211,AUTAUGAVILLE,1,32.486,-86.570,4,27,0,1,1
840,2,212,SEALE,1,32.503,-85.253,4,27,0,1,1
840,2,213,CITRONELLE,1,31.137,-88.221,4,27,0,1,1
840,2,214,CLAIBORNE,1,31.746,-87.636,4,27,0,1,1
840,2,215,HELICON,1,31.905,-86.185,4,27,0,1,1
840,2,216,EUFAULA,1,31.730,-85.256,4,27,0,1,1
840,2,217,ST. ELMO,1,30.487,-88.385,3,27,0,1,1
840,2,218,BAY MINETTE,1,30.803,-87.637,3,27,0,1,1
840,2,306,DRUMMOND,1,33.816,-87.142,13,28,0,1,1
840,2,750,TRIANA,0,34.476,-86.468,14,24,0,2,3
840,2,751,RIVERSIDE,0,33.592,-86.204,13,28,0,2,3
840,2,752,SPROTT-CAHABA RIV,0,32.668,-87.242,4,27,0,2,3
840,2,753,GAINESTOWN FERRY,0,31.377,-87.723,4,27,0,2,3
840,2,754,Chacaloochee Bay,1,30.688,-87.969,4,27,0,2,3
840,2,900,ELKMONT,0,34.950,-87.150,14,24,0,1,3
840,2,901,TRACE CHEROKEE,1,34.664,-88.090,4,27,0,1,3
840,3,1,EAGLE,1,64.553,-141.279,25,4,0,1,1
840,3,2,CIRCLE,1,65.791,-144.089,25,4,0,1,1
840,3,3,CHATANIKA R,1,65.270,-146.728,25,4,0,1,1
840,3,4,BIRCH LAKE,1,64.256,-146.077,25,4,0,1,1
840,3,5,LIVENGOOD,1,65.563,-148.418,25,4,0,1,1
840,3,6,NEBESNA,0,62.513,-143.173,68,4,0,1,1
840,3,7,SLANA,1,62.725,-143.889,68,4,0,1,1
840,3,8,TOWER BLUFFS,1,63.615,-143.986,25,4,0,1,1
840,3,9,CHISTOCHINA,1,62.480,-144.829,68,4,0,1,1
840,3,10,NORTHWAY,1,63.013,-141.805,25,4,0,1,1
840,3,11,MACLAREN,1,63.053,-146.061,68,4,0,1,1
840,3,12,MONAHAN,1,63.277,-147.944,68,4,0,1,1
840,3,13,CANTWELL,1,63.379,-148.860,68,4,0,1,1
840,3,15,TOKLAT,1,63.515,-150.048,68,4,0,1,1
840,3,16,SEWARD,0,60.128,-149.434,96,5,0,1,1
840,3,17,GOOSE BAY,0,61.400,-149.843,96,4,0,1,1
840,3,18,SKILAK LAKE,0,60.459,-150.275,96,4,0,1,1
840,3,19,HOMER,0,59.567,-151.333,96,4,0,1,1
840,3,20,JUNEAU ALT,0,58.251,-134.628,94,5,0,1,1
840,3,21,JUNEAU,1,58.442,-134.766,94,5,0,1,1
840,3,23,CRAIG,1,55.556,-133.085,94,5,0,1,1
840,3,24,KETCHIKAN,1,55.327,-131.521,94,5,0,1,1
840,3,25,HAINES,1,59.336,-135.568,94,5,0,1,1
840,3,26,BEAVER CREEK,0,55.633,-132.750,94,5,0,1,1
840,3,28,KALIFONSKY,1,60.296,-151.276,96,4,0,1,1
840,3,29,MATANUSKA,0,61.733,-148.752,96,4,0,1,1
840,3,30,WILLOW,1,61.659,-150.140,96,4,0,1,1
840,3,31,KODIAK,0,57.817,-152.623,96,2,0,1,1
840,3,40,CHENA RIVER,0,64.946,-146.251,25,4,0,1,1
840,3,41,L SALCHA,1,64.546,-146.995,25,4,0,1,1
840,3,42,CHENA HOT SP,0,64.892,-147.541,25,4,0,1,1
840,3,50,CORDOVA,1,60.497,-145.870,96,5,0,1,1
840,3,51,THOMPSON PAS,1,61.059,-145.917,68,5,0,1,1
840,3,52,KENNY LAKE,1,61.734,-144.958,68,4,0,1,1
840,3,53,SHEEP MTN,1,61.937,-147.176,68,5,0,1,1
840,3,54,SOURDOUGH,1,62.362,-145.373,68,4,0,1,1
840,3,55,TONSINA,1,61.661,-145.183,68,4,0,1,1
840,3,60,KATMAI N.P.,1,58.547,-155.791,25,2,0,1,1
840,3,84,BEAR CREEK,0,64.500,-157.000,25,4,0,1,1
840,3,90,ADAK,1,51.827,-176.636,99,1,0,1,1
840,3,101,CHICKEN,1,64.167,-141.411,25,4,0,1,1
840,3,112,GLENALLEN,0,62.029,-145.399,68,4,0,1,1
840,3,113,CHULITNA,0,62.746,-150.122,68,4,0,1,1
840,3,115,SAVAGE,1,63.738,-149.291,68,4,0,1,1
840,3,116,MOOSE PASS,0,60.502,-149.371,96,5,0,1,1
840,3,117,HATCHER PASS,1,61.587,-149.428,96,4,0,1,1
840,3,118,SWAN LAKE RD,1,60.596,-150.787,96,4,0,1,1
840,3,119,ANCHOR RIVER,1,59.797,-151.796,96,4,0,1,1
840,3,121,PETERSBURG,0,56.808,-132.913,94,5,0,1,1
840,3,122,SITKA,1,57.017,-135.155,94,5,0,1,1
840,3,123,THORNE BAY,0,55.688,-132.626,94,5,0,1,1
840,3,124,ZIMOVIA STRT,0,56.470,-132.375,94,5,0,1,1
840,3,125,YAKUTAT,1,59.444,-139.565,94,5,0,1,1
840,3,131,CHINIAK,1,57.533,-152.450,96,2,0,1,1
840,3,142,CHENA HOT SPRING 2,1,65.054,-146.060,25,4,0,1,1
840,3,180,DILLINGHAM,1,59.035,-158.527,25,2,0,1,1
840,3,191,COLD BAY,1,55.269,-162.898,99,2,0,1,1
840,3,192,KING SALMON,1,58.670,-156.459,25,2,0,1,1
840,3,212,LAKE LOUISE,1,62.232,-146.516,68,4,0,1,1
840,3,213,SU BRIDGE,0,62.397,-150.263,68,4,0,1,1
840,3,216,HOPE,1,60.780,-149.553,96,5,0,1,1
840,3,217,WASILLA,0,61.631,-149.830,96,4,0,1,1
840,3,218,COHOE,1,60.367,-151.372,96,4,0,1,1
840,3,219,SELDOVIA,0,59.447,-151.486,96,4,0,1,1
840,3,221,MITKOF ISLE,1,56.740,-132.766,94,5,0,1,1
840,3,223,THORNE BAY 2,1,55.844,-132.543,94,5,0,1,1
840,3,224,ZIMOVIA STRT,1,56.460,-132.380,94,5,0,1,1
840,3,231,Kodiak 2,1,57.813,-152.618,96,2,0,1,1
840,3,284,NICHOLAI SL,1,64.771,-157.029,25,4,0,2,1
840,3,313,PETERSVILLE,1,62.317,-150.237,68,4,0,1,1
840,3,318,SEVEN LAKES,1,60.526,-150.566,96,4,0,1,1
840,3,319,KACHEMAK,1,59.646,-151.561,96,4,0,1,1
840,3,321,HARLEQUIN L.,1,59.418,-139.022,94,5,0,1,1
840,3,372,DIETRICH CMP,1,67.670,-149.715,99,3,0,1,1
840,3,401,BURMA ROAD,1,61.400,-149.842,96,4,0,1,1
840,3,402,CAPE NOME,1,64.488,-165.312,99,2,0,1,1
840,3,403,CARIBOU MTN.,1,66.442,-150.632,99,4,0,1,1
840,3,404,COLDFOOT,1,67.017,-150.290,99,4,0,1,1
840,3,405,COUNCIL,1,64.545,-164.437,99,2,0,1,1
840,3,406,DONELLY DOME,1,64.016,-145.728,25,4,0,1,1
840,3,407,UNALAKLEET RIVER,1,64.015,-159.809,25,4,0,2,1
840,3,408,GALBRAITH L.,1,68.427,-149.347,99,3,0,1,1
840,3,409,HAPPY VALLEY,1,68.857,-148.835,99,3,0,1,1
840,3,410,HATHER CREEK,1,63.596,-158.078,25,4,0,2,1
840,3,411,HOONAH,1,57.922,-135.046,94,5,0,1,1
840,3,412,WHALE PASS,1,56.208,-133.078,94,5,0,1,1
840,3,413,TANGLE LAKES,0,63.046,-146.032,68,4,0,1,1
840,3,414,KANUTI CANYN,1,66.334,-152.950,25,4,11,2,1
840,3,415,MCGRATH,1,62.951,-155.589,25,4,0,1,1
840,3,416,KOYUKUK RIV.,1,66.580,-151.942,25,4,0,2,1
840,3,417,COTTONWOOD,0,61.564,-149.350,96,4,0,1,1
840,3,418,MANLEY HT SP,1,65.008,-150.613,25,4,0,1,1
840,3,419,MOOSE CREEK,1,65.488,-148.655,25,4,0,1,1
840,3,420,MT. FAIRPLAY,1,63.609,-142.324,25,4,0,1,1
840,3,421,MUD RIVER,1,63.583,-157.844,25,4,0,2,1
840,3,422,NOME,1,64.778,-165.999,99,2,0,1,1
840,3,423,RUBY,1,64.461,-155.524,25,4,0,1,1
840,3,424,SALMON LAKE,1,64.616,-165.302,99,2,0,1,1
840,3,425,SKAGWAY,1,59.529,-135.351,94,5,0,1,1
840,3,426,ST. MARY'S,1,62.053,-163.169,99,2,0,1,1
840,3,427,TELLER,1,64.831,-166.088,99,2,0,1,1
840,3,428,MURPHY DOME,1,64.912,-147.942,25,4,0,1,1
840,3,429,ZAREMBO,1,56.350,-132.767,94,5,0,1,1
840,3,430,PORCUPINE R.,1,66.692,-144.731,25,4,0,2,1
840,3,431,DELTA,1,63.856,-145.738,25,4,0,1,1
840,3,432,FT. RICHRDSN,1,61.296,-149.779,96,4,0,1,1
840,3,433,ANVIK RIVER,1,62.921,-160.692,25,4,0,2,1
840,3,434,TOGIAK RIVER,1,59.532,-159.694,99,2,0,2,1
840,3,435,CHICHAGOF IS,1,57.838,-135.060,94,5,0,1,1
840,3,436,GWEEK RIVER,1,60.873,-161.603,99,2,0,2,1
840,3,437,TUPUKNUK,1,60.695,-161.610,99,2,0,2,1
840,3,438,RED DOG,1,67.854,-163.303,99,3,0,1,1
840,3,439,HYDER,1,55.916,-130.016,94,5,0,1,1
840,3,440,TATALINA,1,62.912,-155.619,25,4,0,1,1
840,3,442,KANEKTOK RIV,1,59.856,-160.682,99,2,0,2,1
840,3,444,KOTZEBUE,1,66.902,-162.564,99,2,0,1,1
840,3,445,Kanuti Lake,1,66.237,-152.118,25,4,11,2,1
840,3,760,GOODNEWS BAY,1,59.327,-161.029,25,2,0,2,1
840,3,811,KOBUK RIVER (Short),0,67.103,-158.275,25,4,0,2,6
840,3,812,PINOCHE TRAL (Short),0,61.917,-147.667,68,4,0,1,6
840,3,816,KENAI LAKE (Short),0,60.386,-149.688,96,5,0,1,6
840,3,817,ELMENDORF (Short),0,61.000,-149.000,96,5,0,1,6
840,3,821,HARLEQUIN L (Short),0,59.419,-139.026,94,5,0,1,6
840,3,822,SITKA (Short),0,57.127,-135.348,94,5,0,1,6
840,3,824,WRANGELL (Short),0,56.000,-132.000,94,5,0,1,6
840,3,825,YAKUTAT (Short),0,59.000,-139.000,94,5,0,1,6
840,3,832,ALPENGLOW (Short),0,61.256,-149.544,96,5,0,1,6
840,3,850,COPPER RIVER,0,60.465,-145.348,96,5,0,1,1
840,3,851,VALDEZ (Short),0,61.126,-146.359,96,5,0,1,6
840,3,880,DILLINGHAM (Short),0,59.273,-158.621,25,2,0,1,6
840,3,881,KUGARAK (Short),0,66.599,-159.126,25,2,0,1,6
840,3,882,SELAWIK (Short),0,66.555,-159.029,25,2,0,1,6
840,3,883,GALENA (Short),1,64.740,-156.966,25,4,0,1,6
840,3,884,KOTZEBUE (Short),0,66.891,-162.554,99,2,0,1,6
840,3,891,COLD BAY (Short),0,55.169,-162.742,99,2,0,1,6
840,3,892,KING SALMON (Short),0,58.671,-156.459,99,2,0,1,6
840,3,901,PAXSON LAKE,1,63.029,-145.497,68,4,0,1,3
840,3,902,NABESNA ROAD,1,62.442,-143.071,68,4,0,1,3
840,3,903,KUSKULANA,1,61.526,-144.407,68,4,0,1,3
840,3,905,MCCARTHY RD2,1,61.434,-142.945,68,4,0,1,3
840,3,906,STIKINE RIVER,1,56.647,-131.857,94,5,0,2,3
840,3,907,KUIU ISLAND,1,56.708,-134.242,94,5,0,1,3
124,4,1,SEVEN PERSON,0,49.932,-110.845,38,11,0,1,1
124,4,2,BOW ISLAND,1,49.873,-111.410,38,11,0,1,1
124,4,3,MILK RIVER,1,49.090,-112.397,65,11,0,1,1
124,4,4,FORT MACLEOD,1,49.815,-113.570,38,11,0,1,1
124,4,5,SENTINEL,0,49.633,-114.587,64,10,0,1,1
124,4,6,BINDLOSS,1,50.747,-110.259,38,11,0,1,1
124,4,7,BROOKS,0,50.564,-111.849,38,11,0,1,1
124,4,8,BOW CITY,0,50.303,-112.020,38,11,0,1,1
124,4,9,BUFFALO HILL,1,50.601,-113.029,38,11,0,1,1
124,4,10,HIGHWOOD RIV,1,50.481,-114.425,30,10,0,1,1
124,4,11,CEREAL,1,51.009,-110.796,37,11,0,1,1
124,4,12,BIG STONE,0,51.329,-111.078,37,11,0,1,1
124,4,13,ROWLEY,1,51.778,-112.647,37,11,0,1,1
124,4,14,KEOMA,0,51.213,-113.772,30,11,0,1,1
124,4,15,EAGLE HILL,1,51.831,-114.450,30,6,0,1,1
124,4,16,EXSHAW,0,51.095,-115.091,64,10,0,1,1
124,4,17,BOW PASS,1,51.460,-116.220,64,10,0,1,1
124,4,18,CZAR,1,52.463,-110.651,30,11,0,1,1
124,4,19,TALBOT,1,52.201,-111.076,37,11,0,1,1
124,4,20,HALKIRK,1,52.172,-112.339,37,11,0,1,1
124,4,21,DELBURNE,0,52.201,-113.228,30,11,0,1,1
124,4,22,RAVEN,1,52.028,-114.478,30,6,0,1,1
124,4,23,HARLECH,0,52.498,-116.000,29,6,0,1,1
124,4,24,WINDY POINT,1,52.259,-116.392,29,10,0,1,1
124,4,25,MALIGNE LAKE,1,52.731,-117.637,64,10,0,1,1
124,4,26,DERWENT,1,53.497,-110.866,30,11,0,1,1
124,4,27,TWO HILLS,1,53.716,-111.526,30,11,0,1,1
124,4,28,LINDBROOK,1,53.338,-112.782,30,11,0,1,1
124,4,29,CALAHOO,1,53.687,-113.885,30,11,0,1,1
124,4,30,WARBURG,1,53.164,-114.220,30,6,0,1,1
124,4,31,RONAN,1,53.803,-115.266,29,6,0,1,1
124,4,32,EDSON,1,53.599,-116.404,29,6,0,1,1
124,4,33,ENTRANCE,1,53.374,-117.711,29,6,0,1,1
124,4,34,HOFF,1,53.813,-118.483,29,10,0,1,1
124,4,36,KEHIWIN LAKE,1,54.058,-110.886,30,6,0,1,1
124,4,37,THERIEN,1,54.268,-111.278,30,6,0,1,1
124,4,38,KINIKINIK,1,54.500,-112.980,29,6,0,1,1
124,4,39,ATHABASCA,1,54.835,-113.158,29,6,0,1,1
124,4,40,THUNDER LAKE,1,54.120,-114.715,29,6,0,1,1
124,4,41,SWAN HILLS,0,54.760,-115.538,29,6,0,1,1
124,4,42,WINDFALL,1,54.133,-116.216,30,6,0,1,1
124,4,43,LITTLE SMOKY,1,54.766,-117.248,30,6,0,1,1
124,4,44,ECONOMY CRK,1,54.750,-118.226,30,6,0,1,1
124,4,45,WAPITI,0,54.938,-119.196,30,6,0,1,1
124,4,46,WINEFRED LAKE,1,55.554,-110.907,29,6,0,1,1
124,4,47,HEART LAKE,1,55.006,-111.732,29,6,0,1,1
124,4,48,WANDERING R,0,55.387,-112.454,29,6,0,1,1
124,4,49,CALLING LAKE,1,55.486,-113.440,29,6,0,1,1
124,4,50,MARTEN RIVER,1,55.499,-114.914,29,6,0,1,1
124,4,51,KINUSO,0,55.258,-115.385,29,6,0,1,1
124,4,52,HIGH PRAIRIE,0,55.553,-116.782,29,6,0,1,1
124,4,53,WATINO,1,55.781,-117.826,29,6,0,1,1
124,4,54,RYCROFT,1,55.840,-118.457,29,6,0,1,1
124,4,55,WEMBLEY,1,55.142,-119.218,30,6,0,1,1
124,4,57,HANGINGSTONE,0,56.233,-111.672,29,6,0,1,1
124,4,61,LOON RIVER,1,56.284,-115.364,29,6,0,1,1
124,4,62,THREE CREEKS,1,56.363,-117.003,29,6,0,1,1
124,4,63,CARDINAL LK,1,56.276,-117.821,29,6,0,1,1
124,4,64,HINES CREEK,1,56.508,-118.739,29,6,0,1,1
124,4,65,BEAR CANYON,1,56.195,-119.820,29,6,0,1,1
124,4,73,HOTCHKISS,1,57.068,-117.611,29,6,0,1,1
124,4,77,FORT SMITH,1,59.989,-111.838,25,6,0,1,1
124,4,78,PEACE POINT,1,59.311,-112.487,29,6,0,1,1
124,4,79,HAY CAMP,1,59.862,-111.615,25,6,0,1,1
124,4,81,RED ROCK COULEE,1,49.878,-110.889,38,11,0,1,1
124,4,96,KANANASKIS,1,50.985,-115.075,64,10,0,1,1
124,4,101,MANYBERRIES,1,49.261,-110.691,38,11,0,1,1
124,4,102,SHERBOURNE L,1,49.582,-111.698,38,11,0,1,1
124,4,103,HORSEFLY LK.,1,49.611,-112.150,38,11,0,1,1
124,4,104,GRANUM,1,49.902,-113.099,38,11,0,1,1
124,4,105,WATERTON PRK,1,49.020,-114.045,65,10,0,1,1
124,4,106,SCHULER,1,50.004,-110.073,38,11,0,1,1
124,4,107,WARDLOW,1,50.921,-111.113,38,11,0,1,1
124,4,108,RANIER,0,50.303,-112.020,38,11,0,1,1
124,4,109,MAZEPPA,1,50.426,-113.827,37,11,0,1,1
124,4,110,OKOTOKS,0,50.543,-114.093,37,11,0,1,1
124,4,111,ESTHER,1,51.445,-110.380,37,11,0,1,1
124,4,112,HEMARUKA,1,51.576,-111.201,37,11,0,1,1
124,4,113,DOWLING LAKE,1,51.954,-112.131,37,11,0,1,1
124,4,114,SHEEP COULEE,1,51.561,-113.896,30,11,0,1,1
124,4,115,DIDSBURY,1,51.548,-114.213,30,11,0,1,1
124,4,116,WIGWAM CREEK,1,51.662,-115.407,29,6,0,1,1
124,4,118,MILLARD LAKE,1,52.931,-110.584,30,11,0,1,1
124,4,119,KILLAM,1,52.901,-111.890,30,11,0,1,1
124,4,120,HEISLER,1,52.638,-111.996,30,11,0,1,1
124,4,121,BATTLE RIVER,1,52.611,-113.987,30,11,0,1,1
124,4,122,BENALTO,1,52.581,-114.410,30,6,0,1,1
124,4,123,CRIPPLE CRK,1,52.209,-115.968,64,6,0,1,1
124,4,125,SUNWAPTA FLS,1,52.488,-117.518,64,10,0,1,1
124,4,126,VANESTI,1,53.290,-110.542,30,11,0,1,1
124,4,127,VIKING,1,53.103,-111.760,30,11,0,1,1
124,4,128,BRUCE,1,53.105,-112.148,30,11,0,1,1
124,4,129,HAY LAKES,0,53.120,-113.123,30,11,0,1,1
124,4,130,TOMAHAWK,0,53.541,-114.787,30,6,0,1,1
124,4,131,MACKAY,1,53.774,-115.612,29,6,0,1,1
124,4,136,BEAVERDAM,1,54.181,-110.305,29,6,0,1,1
124,4,137,LAC LA BICHE,1,54.757,-111.972,29,6,0,1,1
124,4,138,LONG LAKE,1,54.434,-112.829,30,6,0,1,1
124,4,139,PICKARDVILLE,1,54.051,-113.916,30,11,0,1,1
124,4,141,FREEMAN LAKE,1,54.742,-115.783,29,6,0,1,1
124,4,143,FOX CREEK,1,54.363,-117.037,30,6,0,1,1
124,4,147,CONKLIN,1,55.669,-111.107,29,6,0,1,1
124,4,149,SANDY LAKE,1,55.904,-113.699,29,6,0,1,1
124,4,152,WINAGAMI LK,1,55.600,-116.614,29,6,0,1,1
124,4,153,VALLEYVIEW,1,55.083,-117.357,30,6,0,1,1
124,4,154,HEART VALLEY,1,55.695,-118.389,30,6,0,1,1
124,4,155,HYTHE,1,55.316,-119.666,30,6,0,1,1
124,4,157,WILLOW LAKE,1,56.165,-110.856,29,6,0,1,1
124,4,163,DEADWOOD,1,56.741,-117.458,29,6,0,1,1
124,4,164,DEER HILL,1,56.247,-118.080,29,6,0,1,1
124,4,165,PEACE RIVER,1,56.364,-119.031,29,6,0,1,1
124,4,196,SMITH DORRIEN,1,50.692,-115.139,64,10,0,1,1
124,4,201,THELMA,1,49.538,-110.275,38,11,0,1,1
124,4,202,ETZIKOM COUL,1,49.348,-111.799,38,11,0,1,1
124,4,203,KIPP COULEE,1,49.384,-112.651,38,11,0,1,1
124,4,204,TWIN BUTTE,1,49.262,-113.657,38,11,0,1,1
124,4,205,COLEMAN,1,49.636,-114.490,64,10,0,1,1
124,4,206,BOWELL,1,50.222,-110.960,38,11,0,1,1
124,4,207,HAYS,1,50.152,-111.984,38,11,0,1,1
124,4,208,ENCHANT,1,50.164,-112.314,38,11,0,1,1
124,4,209,ENSIGN,1,50.485,-113.390,38,11,0,1,1
124,4,210,LONGVIEW,1,50.514,-114.247,37,11,0,1,1
124,4,211,ACADIA VALLY,1,51.358,-110.193,38,11,0,1,1
124,4,212,SPONDIN,1,51.766,-111.517,37,11,0,1,1
124,4,213,CRAWLING VAL,1,51.183,-112.331,37,11,0,1,1
124,4,214,KATHYRN,1,51.415,-113.732,30,11,0,1,1
124,4,215,GHOST LAKE,1,51.210,-114.763,29,10,0,1,1
124,4,218,HAYTER,1,52.289,-110.195,30,11,0,1,1
124,4,219,AMISK,1,52.668,-111.109,30,11,0,1,1
124,4,220,BASHAW,1,52.522,-112.860,30,11,0,1,1
124,4,221,LACOMBE,1,52.551,-113.940,30,11,0,1,1
124,4,222,RIMBEY,1,52.657,-114.194,30,6,0,1,1
124,4,223,BREWSTER CRK,0,52.796,-115.520,29,6,0,1,1
124,4,225,MOUNTAIN PRK,1,52.985,-117.342,29,10,0,1,1
124,4,226,PARADISE VAL,1,53.264,-110.152,30,11,0,1,1
124,4,227,LAKE ELIZA,1,53.776,-111.243,30,6,0,1,1
124,4,228,SKARO,1,53.934,-112.703,30,11,0,1,1
124,4,229,CALMAR,1,53.338,-113.853,30,11,0,1,1
124,4,230,MOON LAKE,1,53.483,-114.788,30,6,0,1,1
124,4,231,NITON,1,53.725,-115.711,29,6,0,1,1
124,4,236,ARDMORE,1,54.356,-110.354,29,6,0,1,1
124,4,237,HELENA,1,54.472,-111.379,29,6,0,1,1
124,4,238,BARICH,1,54.239,-112.226,30,6,0,1,1
124,4,239,EGREMONT,1,54.036,-113.321,30,6,0,1,1
124,4,240,FAWCETT,0,54.472,-114.078,29,6,0,1,1
124,4,241,CONNOR CREEK,1,54.035,-115.118,29,6,0,1,1
124,4,251,SWAN RIVER,1,54.999,-115.260,29,6,0,1,1
124,4,252,PRAIRIE ECHO,1,55.432,-116.412,29,6,0,1,1
124,4,253,NEW FISH CREEK,1,55.433,-117.180,30,6,0,1,1
124,4,254,FITZSIMMONS,1,55.346,-118.359,30,6,0,1,1
124,4,255,BEAR LAKE,1,55.461,-119.051,30,6,0,1,1
124,4,301,RUSH LAKE,0,49.524,-110.681,38,11,0,1,1
124,4,302,LEGEND,1,49.756,-111.517,38,11,0,1,1
124,4,303,WRENTHAM,1,49.465,-112.427,38,11,0,1,1
124,4,304,SUMMERVIEW,1,49.749,-113.784,38,11,0,1,1
124,4,306,Roseglen,1,50.557,-110.325,38,11,6,1,1
124,4,307,STEVEVILLE,1,50.936,-111.866,38,11,0,1,1
124,4,308,MAJORVILLE,0,50.601,-112.994,38,11,0,1,1
124,4,309,CLEAR LAKE,1,50.019,-113.391,38,11,0,1,1
124,4,310,CHAIN LAKES,1,50.270,-114.208,37,11,0,1,1
124,4,311,CHINOOK,1,51.445,-110.919,37,11,0,1,1
124,4,312,OAKLAND LAKE,1,51.416,-111.476,37,11,0,1,1
124,4,313,DOROTHY,1,51.329,-112.044,37,11,0,1,1
124,4,314,CARBON,1,51.358,-113.169,30,11,0,1,1
124,4,315,LOCHEND LAKE,1,51.329,-114.260,30,11,0,1,1
124,4,318,CONSORT,1,52.012,-110.743,30,11,0,1,1
124,4,319,FLEET,1,51.998,-111.814,37,11,0,1,1
124,4,320,STROME,1,52.814,-112.036,30,11,0,1,1
124,4,321,TEES,1,52.727,-113.221,30,11,0,1,1
124,4,322,HESPERO,1,52.406,-114.410,30,6,0,1,1
124,4,323,NORDEGG RIV.,0,52.523,-115.954,29,6,0,1,1
124,4,326,ELK POINT,1,53.991,-110.946,30,6,0,1,1
124,4,327,MYRNAM,1,53.454,-111.134,30,6,0,1,1
124,4,328,KINGMAN,1,53.309,-112.782,30,11,0,1,1
124,4,329,CLOVER LAWN,1,53.134,-113.196,30,11,0,1,1
124,4,330,ISLE LAKE,1,53.628,-114.399,30,6,0,1,1
124,4,331,CHIP LAKE,1,53.614,-115.451,29,6,0,1,1
124,4,336,MARGUERITE L,1,54.636,-110.761,29,6,0,1,1
124,4,337,ST. LINA,1,54.268,-111.253,30,6,0,1,1
124,4,338,NORAL,1,54.673,-112.375,30,6,0,1,1
124,4,339,ISLAND LAKE,1,54.618,-113.433,29,6,0,1,1
124,4,340,NEERLANDIA,1,54.341,-114.489,29,6,0,1,1
124,4,352,GROUARD,1,55.433,-116.306,29,6,0,1,1
124,4,353,KIMIWAN LAKE,1,56.005,-117.185,29,6,0,1,1
124,4,354,WANHAM,1,55.811,-118.130,29,6,0,1,1
124,4,355,ALBRIGHT,1,55.258,-119.976,30,6,0,1,1
124,4,401,MEDICINE HAT,1,49.862,-110.682,38,11,0,1,1
124,4,404,TROUT CREEK,1,49.876,-114.079,30,10,0,1,1
124,4,407,Lake Newell,1,50.564,-111.849,38,11,0,1,1
124,4,408,ROSEMARY,1,50.921,-112.174,38,11,0,1,1
124,4,411,Cavendish,0,50.703,-110.609,38,11,0,1,1
124,4,412,Blood Indian Resevoi,1,51.271,-111.191,37,11,0,1,1
124,4,413,McNab,1,49.348,-112.270,38,11,0,1,1
124,4,414,Sunnyslope,1,51.678,-113.666,30,11,0,1,1
124,4,421,PINE LAKE,1,52.201,-113.219,30,11,0,1,1
124,4,429,South Cooking Lake,1,53.120,-113.123,30,11,0,1,1
124,4,430,YEOFORD,1,53.018,-114.173,30,6,0,1,1
124,4,438,SKUKUM LAKE,0,54.918,-112.018,29,6,0,1,1
124,4,440,FREEDOM,1,54.239,-114.052,29,6,0,1,1
124,4,452,SNIPE LAKE,1,55.113,-116.798,29,6,0,1,1
124,4,501,Rolling Hills,1,50.089,-111.568,38,11,0,1,1
124,4,504,Furman,0,49.981,-113.908,30,10,0,1,1
124,4,508,BASSANO,1,50.834,-112.451,37,11,0,1,1
124,4,511,Buffalo,1,50.765,-110.674,38,11,0,1,1
124,4,512,Onefour,1,49.101,-110.563,38,11,0,1,1
124,4,540,Pembina River,1,54.480,-114.153,29,6,0,1,1
124,4,608,New Majorville,1,50.601,-112.994,38,11,0,1,1
124,4,612,Wildhorse,1,49.101,-110.563,38,11,0,1,1
124,4,712,Cutbank Creek,0,49.101,-110.563,38,11,0,1,1
124,4,928,ELK ISLAND,1,53.716,-112.815,30,11,0,1,3
840,6,1,MT TRUMBULL,0,36.412,-113.325,87,16,0,1,1
840,6,2,HOUSE ROCK,1,36.731,-112.046,87,16,0,1,1
840,6,3,THE GAP,0,36.162,-111.387,87,16,0,1,1
840,6,4,BLACK MESA,1,36.561,-110.502,84,16,0,1,1
840,6,5,ROUND ROCK,0,36.509,-109.473,84,16,0,1,1
840,6,6,SQUAW PEAK,0,35.899,-114.291,83,33,0,1,1
840,6,7,YAMPAI,0,35.516,-113.202,87,16,0,1,1
840,6,8,ROSE WELLS,0,35.755,-112.872,87,16,0,1,1
840,6,9,FLAGSTAFF,1,35.395,-111.578,84,34,0,1,1
840,6,10,ORAIBI,1,35.869,-110.623,87,16,0,1,1
840,6,11,SAWMILL,1,35.679,-109.205,84,16,0,1,1
840,6,12,OATMAN,1,34.986,-114.483,83,33,0,1,1
840,6,13,WIKIEUP,1,34.727,-113.919,82,33,0,1,1
840,6,14,PRESCOTT,1,34.644,-112.433,84,34,0,1,1
840,6,15,MORMON LAKE,0,34.849,-111.434,84,34,0,1,1
840,6,16,ZENIFF,0,34.667,-110.323,87,16,0,1,1
840,6,17,HUNT,1,34.478,-109.605,87,16,0,1,1
840,6,18,QUARTZSITE,1,33.656,-114.217,82,33,0,1,1
840,6,19,VICKSBURG,0,33.884,-113.853,82,33,0,1,1
840,6,20,NEW RIVER,0,33.703,-112.272,82,33,0,1,1
840,6,21,FLORENCE,0,33.022,-111.217,82,33,0,1,1
840,6,22,AZTEC PEAK,0,33.811,-110.905,81,34,0,1,1
840,6,23,BLUE,0,33.610,-109.107,84,34,0,1,1
840,6,24,LAGUNA,1,32.833,-114.399,82,33,0,1,1
840,6,25,DATELAND,1,32.929,-113.541,82,33,0,1,1
840,6,26,AJO,0,32.333,-112.787,82,33,0,1,1
840,6,27,COOLIDGE,0,33.016,-111.384,82,33,0,1,1
840,6,28,POMERENE,1,32.034,-110.303,81,34,0,1,1
840,6,29,SAN SIMON,1,32.500,-109.337,56,34,0,1,1
840,6,30,LUKEVILLE,0,32.027,-112.957,82,33,0,1,1
840,6,31,PENA BLANCA,0,31.387,-111.065,81,34,0,1,1
840,6,32,PATAGONIA,1,31.518,-110.795,81,34,0,1,1
840,6,33,SUNIZONA,0,31.818,-109.695,81,34,0,1,1
840,6,51,TOROWEAP,1,36.286,-113.065,87,16,0,1,1
840,6,52,DRY PARK,1,36.313,-112.032,84,16,0,1,1
840,6,53,PAGE,1,36.913,-111.453,87,16,0,1,1
840,6,54,COW SPRINGS,1,36.392,-110.879,87,16,0,1,1
840,6,55,MANY FARMS,1,36.360,-109.644,87,16,0,1,1
840,6,56,RIVIERA,1,35.123,-114.582,82,33,0,1,1
840,6,57,ANTARES,1,35.427,-113.809,87,33,0,1,1
840,6,58,WILLIAMS,1,35.056,-112.219,84,34,0,1,1
840,6,59,MAINE,1,35.163,-111.948,84,34,0,1,1
840,6,60,CASTLE BUTTE,1,35.278,-110.380,87,16,0,1,1
840,6,61,GREASEWOOD,0,35.530,-109.852,87,16,0,1,1
840,6,63,ALAMO RES.,1,34.232,-113.598,82,33,0,1,1
840,6,64,SKULL VALLEY,1,34.773,-112.619,84,34,0,1,1
840,6,65,TONTO VILL.,1,34.357,-111.101,84,34,0,1,1
840,6,66,FOREST LAKES,1,34.700,-110.767,84,34,0,1,1
840,6,67,PINETOP,1,34.115,-109.915,84,34,0,1,1
840,6,68,CIBOLA LAKE,1,33.231,-114.668,82,33,0,1,1
840,6,69,GILA BEND,1,33.287,-112.938,82,33,0,1,1
840,6,70,PALO VERDE,0,33.334,-112.677,82,33,0,1,1
840,6,71,BARTLETT RES,1,33.818,-111.640,82,34,0,1,1
840,6,72,CUTTER,0,33.175,-110.529,82,34,0,1,1
840,6,73,ALPINE,1,33.867,-109.166,84,34,0,1,1
840,6,74,ARABY,1,32.855,-114.445,82,33,0,1,1
840,6,76,PISINIMO,0,32.176,-112.262,82,33,0,1,1
840,6,77,RED ROCK,0,32.573,-111.329,82,33,0,1,1
840,6,78,REDINGTON,1,32.543,-110.505,81,34,0,1,1
840,6,79,MT. GRAHAM,1,32.650,-109.818,81,34,0,1,1
840,6,80,CABEZA PRIET,1,32.401,-112.932,82,33,0,1,1
840,6,81,AMADO,1,31.712,-111.067,81,34,0,1,1
840,6,82,SAHUARITA,1,31.958,-110.945,81,34,0,1,1
840,6,83,MCNEAL,1,31.646,-109.473,56,34,0,1,1
840,6,84,Wickenburg,1,33.962,-112.772,82,33,0,1,1
840,6,101,NAVAJO TRAIL,1,36.690,-113.459,87,16,0,1,1
840,6,103,KAIBITO,1,36.610,-111.077,87,16,0,1,1
840,6,105,TSAILE,1,36.302,-109.197,84,16,0,1,1
840,6,106,WILLOW BEACH,0,35.866,-114.662,83,33,0,1,1
840,6,107,PEACH SPRING,1,35.554,-113.376,87,16,0,1,1
840,6,108,SELIGMAN,1,35.231,-112.586,87,16,0,1,1
840,6,115,HAPPY JACK,1,34.838,-111.438,84,34,0,1,1
840,6,116,CLAY SPRING,1,34.612,-110.378,84,34,0,1,1
840,6,119,HOPE,0,33.923,-113.825,82,33,0,1,1
840,6,121,CASA GRANDE,1,33.039,-111.379,82,33,0,1,1
840,6,122,CARR MTN,1,33.566,-110.946,81,34,0,1,1
840,6,123,SPRUCEDALE,1,33.610,-109.106,84,34,0,1,1
840,6,126,Ajo 2,1,32.466,-112.870,82,33,0,1,1
840,6,127,CACTUS FOREST,1,32.958,-111.333,82,33,0,1,1
840,6,130,ORGAN PIPE,1,31.957,-112.800,82,33,0,1,1
840,6,133,PORTAL,1,31.983,-109.201,81,34,0,1,1
840,6,161,KLAGETOH,1,35.541,-109.323,87,16,0,1,1
840,6,170,PALO VERDE 2,1,33.334,-112.677,82,33,0,1,1
840,6,172,CUTTER 2,1,33.179,-110.215,82,33,0,1,1
840,6,176,BATES WELL,1,32.356,-112.827,82,33,0,1,1
840,6,177,RED ROCK 2,1,32.573,-111.329,82,33,0,1,1
840,6,206,WILLOW BEACH 2,1,35.866,-114.662,83,33,0,1,1
840,6,219,HOPE 2,1,33.923,-113.825,82,33,0,1,1
840,6,233,SUNIZONA 2,1,31.759,-109.738,81,34,0,1,1
840,6,900,DRAGOON,0,31.920,-109.915,81,34,0,1,3
840,6,901,RUCKER,0,31.606,-109.226,81,34,0,1,3
840,7,1,OLD MILO,1,33.312,-91.891,4,25,0,1,1
840,7,2,EUDORA,1,33.168,-91.332,5,26,0,1,1
840,7,3,RAMSEY,0,33.905,-92.598,4,25,0,1,1
840,7,4,LOCUST BAYOU,1,33.591,-92.697,4,25,0,1,1
840,7,5,STAMPS,1,33.376,-93.471,4,25,0,1,1
840,7,6,HOPE,1,33.663,-93.669,4,25,0,1,1
840,7,7,ASHDOWN,1,33.697,-94.123,4,25,0,1,1
840,7,8,HUGHES,1,34.927,-90.507,5,26,0,1,1
840,7,9,WEST TYLER,0,34.708,-91.700,5,26,0,1,1
840,7,10,SOUTH BEND,1,34.049,-91.500,5,26,0,1,1
840,7,11,CROWS,0,34.618,-92.786,19,25,0,1,1
840,7,12,POYEN,0,34.340,-92.664,4,25,0,1,1
840,7,13,HOLLYWOOD,1,34.034,-93.251,4,25,0,1,1
840,7,14,BLAKELY,0,34.697,-93.083,19,25,0,1,1
840,7,15,WALDRON,1,34.970,-94.044,19,25,0,1,1
840,7,16,HARRISBURG,1,35.485,-90.681,5,26,0,1,1
840,7,17,WHITTON,0,35.518,-90.287,5,26,0,1,1
840,7,18,AUGUSTA,0,35.315,-91.358,5,26,0,1,1
840,7,19,SAFFELL,1,35.911,-91.343,19,26,0,1,1
840,7,20,RUPERT,1,35.633,-92.718,19,24,0,1,1
840,7,21,STARK,1,35.570,-92.196,19,25,0,1,1
840,7,22,COAL HILL,1,35.426,-93.664,19,25,0,1,1
840,7,23,LURTON,1,35.781,-93.070,19,24,0,1,1
840,7,24,MASSARD,1,35.351,-94.332,19,25,0,1,1
840,7,25,MAYNARD,1,36.444,-90.924,5,26,0,1,1
840,7,26,ZION,1,36.099,-91.735,19,24,0,1,1
840,7,27,FULTON,1,36.406,-92.115,19,24,0,1,1
840,7,28,COMPTON,1,36.121,-93.280,19,24,0,1,1
840,7,29,AVOCA,1,36.405,-94.110,19,24,0,1,1
840,7,30,Centerton,1,36.330,-94.303,19,24,0,1,1
840,7,31,Farwell,1,36.394,-93.472,19,24,0,1,1
840,7,32,Yellville,1,36.211,-92.751,19,24,0,1,1
840,7,33,Ravenden Springs,1,36.314,-91.229,5,24,0,1,1
840,7,34,Lafe,1,36.240,-90.517,5,26,0,1,1
840,7,35,Dell,1,35.901,-90.000,5,26,0,1,1
840,7,36,Hickory Ridge,1,35.397,-90.967,5,26,0,1,1
840,7,37,Russell,1,35.374,-91.658,5,24,0,1,1
840,7,38,Marshall,1,35.939,-92.442,19,24,0,1,1
840,7,39,Havana,1,35.075,-93.682,19,25,0,1,1
840,7,40,Hatfield,1,34.462,-94.305,19,25,0,1,1
840,7,41,Sims,1,34.659,-93.689,19,25,0,1,1
840,7,42,England,1,34.559,-92.002,4,26,0,1,1
840,7,43,Gillett,1,34.138,-91.574,5,26,0,1,1
840,7,45,Lockesburg,1,33.783,-94.007,4,25,0,1,1
840,7,46,Springhill,1,33.026,-93.494,4,25,0,1,1
840,7,47,Stephens,1,33.455,-92.967,4,25,0,1,1
840,7,48,Kelso,1,33.797,-91.221,5,26,0,1,1
840,7,49,Rudy,1,35.615,-94.344,19,24,0,1,1
840,7,102,EUDORA 2,0,33.167,-91.317,5,26,0,1,1
840,7,103,PRINCETON,1,33.939,-92.589,4,25,0,1,1
840,7,109,ULM,1,34.701,-91.708,5,26,0,1,1
840,7,111,NANCE,1,34.702,-92.801,19,25,0,1,1
840,7,112,Poyen 2,1,34.350,-92.633,4,25,0,1,1
840,7,114,DRY FORK,1,34.828,-93.237,19,25,0,1,1
840,7,117,WILSON,1,35.518,-90.287,5,26,0,1,1
840,7,118,AUGUSTA 2,1,35.315,-91.358,5,26,0,1,1
840,7,900,OZARK NF,1,35.644,-93.295,19,24,0,1,3
840,7,901,MAGAZINE MTN,1,35.160,-93.425,19,25,0,1,3
840,7,902,BOSTON MTN.,1,35.692,-93.821,19,24,0,1,3
840,7,903,FOUR LAKES,0,33.698,-92.614,4,25,0,1,3
840,7,904,CROWLEY'S RIDGE,1,34.736,-90.685,5,26,0,1,3
124,11,1,CHEMAINUS,0,48.785,-123.599,94,5,0,1,1
124,11,2,PORT RENFREW,0,48.422,-124.055,94,5,0,1,1
124,11,3,BORDER ROAD,1,49.294,-114.732,64,10,0,1,1
124,11,4,TOKAY,1,49.462,-115.516,64,10,0,1,1
124,11,5,KUSKONOOK,1,49.300,-116.661,64,10,0,1,1
124,11,6,SALMO,1,49.147,-117.257,64,10,0,1,1
124,11,7,NEEDLES,1,49.777,-118.140,64,10,0,1,1
124,11,8,BEAVERDELL,1,49.446,-119.078,64,9,0,1,1
124,11,9,PRINCETON,1,49.153,-120.597,67,9,0,1,1
124,11,10,SEABIRD,1,49.295,-121.688,94,5,0,1,1
124,11,11,ALBION,0,49.184,-122.535,94,5,0,1,1
124,11,12,SUNSHINE CST,0,49.407,-123.513,94,5,0,1,1
124,11,13,ALBERNI,0,49.262,-124.836,94,5,0,1,1
124,11,14,ELSIE LAKE,0,49.475,-125.188,94,5,0,1,1
124,11,15,ELKFORD,1,50.246,-114.958,64,10,0,1,1
124,11,16,COLUMBIA LK,1,50.239,-115.874,64,10,0,1,1
124,11,17,SPILLIMACHEEN,1,50.924,-116.478,64,10,0,1,1
124,11,18,ZINCTON,1,50.038,-117.206,64,10,0,1,1
124,11,19,MABEL LAKE,1,50.441,-118.743,64,9,0,1,1
124,11,20,SALMON ARM,1,50.674,-119.321,64,9,0,1,1
124,11,21,NICOLA,0,50.283,-120.692,64,9,0,1,1
124,11,22,CANFORD,1,50.023,-121.099,64,9,0,1,1
124,11,23,SHALALTH,1,50.790,-122.224,63,9,0,1,1
124,11,26,CAMPBELL R,0,50.026,-125.241,94,5,0,1,1
124,11,27,EVE RIVER,0,50.350,-126.156,94,5,0,1,1
124,11,28,PORT HARDY,0,50.704,-127.877,94,5,0,1,1
124,11,29,GOLDEN,1,51.322,-116.987,64,10,0,1,1
124,11,30,ESPLANADE RG,0,51.504,-117.417,64,10,0,1,1
124,11,31,GOLDSTREAM R,0,51.676,-118.636,64,10,0,1,1
124,11,32,SCOTCH CREEK,1,51.037,-119.391,64,10,0,1,1
124,11,33,BRIDGE LAKE,0,51.387,-120.710,63,10,0,1,1
124,11,34,MEADOWLAKE,1,51.413,-121.979,63,10,0,1,1
124,11,36,CARDIFF MTN,1,51.563,-123.697,63,10,0,1,1
124,11,37,TATLAYOKO L,1,51.490,-124.392,63,10,0,1,1
124,11,42,GOSNELL,1,52.526,-119.114,64,10,0,1,1
124,11,43,HENDRIX LAKE,1,52.091,-120.794,64,10,0,1,1
124,11,44,KEITHLEY CR.,1,52.898,-121.338,64,10,0,1,1
124,11,45,WILLIAMS LK,1,52.150,-122.068,63,10,0,1,1
124,11,46,ALEXIS CREEK,1,52.255,-123.525,63,10,0,1,1
124,11,48,HECKMAN PASS,1,52.510,-125.407,63,10,0,1,1
124,11,49,BELLA COOLA,1,52.388,-126.527,68,5,0,1,1
124,11,53,MCBRIDE,1,53.279,-120.079,64,10,0,1,1
124,11,54,WINGDAM,1,53.039,-121.981,64,10,0,1,1
124,11,55,FERNDALE,1,53.971,-122.461,63,10,0,1,1
124,11,57,KENNEY DAM,1,53.598,-124.901,63,10,0,1,1
124,11,58,DUNSTER,1,53.084,-119.671,64,10,0,1,1
124,11,63,Heritage Hwy,1,54.969,-120.111,29,6,0,1,1
124,11,65,MCLEOD LAKE,1,54.988,-123.034,63,10,0,1,1
124,11,67,FRASER LAKE,0,54.087,-124.832,68,10,0,1,1
124,11,68,PINKUT CREEK,1,54.413,-125.419,68,10,0,1,1
124,11,69,MT MORICE,1,54.361,-126.793,68,10,0,1,1
124,11,70,SMITHERS,0,55.002,-127.319,68,10,0,1,1
124,11,71,LAKELSE,1,54.372,-128.582,94,5,0,1,1
124,11,72,KWINITSA,1,54.333,-129.296,94,5,0,1,1
124,11,74,TUPPER,1,55.454,-120.158,30,6,0,1,1
124,11,75,WILLISTON LK,1,55.451,-123.208,63,10,0,1,1
124,11,78,GERMANSEN LANDING,1,55.800,-124.730,68,10,0,1,1
124,11,79,KWANIKA CREEK,1,55.602,-125.174,68,10,0,1,1
124,11,81,KISPIOX,0,55.158,-127.886,68,5,0,1,1
124,11,82,NASS RIVER,0,55.772,-128.850,94,5,0,1,1
124,11,83,Gitwinksihlkw,1,55.209,-129.135,94,5,0,1,1
124,11,84,FT ST JOHN,0,56.363,-120.400,29,6,0,1,1
124,11,85,HUDSON HOPE,1,56.030,-121.908,29,6,0,1,1
124,11,93,MEZIADIN,1,56.105,-129.284,68,5,0,1,1
124,11,101,Saltair,1,48.757,-123.599,94,5,0,1,1
124,11,102,Fairy Lake,1,48.582,-124.395,94,5,0,1,1
124,11,106,KINASKAN LK,1,57.502,-130.220,68,4,0,1,1
124,11,110,FORT NELSON,1,58.842,-122.916,29,6,0,1,1
124,11,111,STEAMBOAT,1,58.660,-123.852,68,6,0,1,1
124,11,112,TETSA RIVER,1,58.667,-123.954,68,4,0,1,1
124,11,114,Ash River,1,49.513,-125.126,94,5,0,1,1
124,11,116,KOOTENAY,1,50.633,-116.056,64,10,0,1,1
124,11,117,GNAT PASS,1,58.100,-129.863,68,4,0,1,1
124,11,118,BEAVERFOOT,0,51.249,-116.675,64,10,0,1,1
124,11,125,PETITOT RIVER,1,59.981,-122.921,29,6,0,1,1
124,11,126,CAMPBELL LAKE,1,50.026,-125.241,94,5,0,1,1
124,11,131,Big Bend Hwy,1,51.676,-118.636,64,10,0,1,1
124,11,132,CASSIAR,1,59.221,-129.742,68,4,0,1,1
124,11,133,Eaganbridge,1,51.387,-120.710,63,10,0,1,1
124,11,134,SWAN LAKE,1,59.941,-131.975,68,4,0,1,1
124,11,136,ATLIN ROAD,1,60.000,-133.795,68,4,0,1,1
124,11,137,PENNINGTON,1,60.002,-134.660,68,4,0,1,1
124,11,139,CHILKAT PASS,0,59.451,-136.362,68,4,0,1,1
124,11,150,GOLD RIVER,1,49.679,-126.117,94,5,0,1,1
124,11,167,Ormond Lake,1,54.087,-124.832,68,10,0,1,1
124,11,175,Groundbirch,1,55.925,-120.993,29,6,0,1,1
124,11,181,Glen Vowell,1,55.197,-127.746,68,5,0,1,1
124,11,185,SUKUNKA FALLS,1,55.578,-121.591,29,10,0,1,1
124,11,198,MASSETT,1,54.031,-132.057,94,5,0,1,1
124,11,199,Rennell Sound,0,53.251,-132.117,94,5,0,1,1
124,11,200,MORESBY IS,0,53.237,-131.864,94,5,0,1,1
124,11,201,VICTORIA,1,48.405,-123.350,94,5,0,1,1
124,11,202,NITNAT,1,48.872,-124.815,94,5,0,1,1
124,11,204,WASA,0,49.648,-115.650,64,10,0,1,1
124,11,205,CRESTON,1,49.073,-116.523,64,10,0,1,1
124,11,206,SLOCAN,1,49.509,-117.617,64,10,0,1,1
124,11,207,GRAND FORKS,1,49.042,-118.475,64,10,0,1,1
124,11,208,SUMMERLAND,1,49.598,-119.730,64,9,0,1,1
124,11,209,ASHNOLA,0,49.132,-120.293,67,9,0,1,1
124,11,210,CHILLIWACK,0,49.048,-121.974,94,5,0,1,1
124,11,211,PITT MEADOWS,0,49.231,-122.690,94,5,0,1,1
124,11,212,POINT GREY,1,49.263,-123.258,94,5,0,1,1
124,11,213,SALTERY BAY,0,49.783,-124.179,94,5,0,1,1
124,11,214,WICKANINNISH,1,49.043,-125.694,94,5,0,1,1
124,11,216,CANAL FLATS,1,50.649,-115.844,64,10,0,1,1
124,11,218,GERRARD,1,50.337,-117.000,64,10,0,1,1
124,11,220,LAVINGTON,1,50.266,-119.087,64,9,0,1,1
124,11,221,PLEASANT VAL,1,50.225,-120.619,64,9,0,1,1
124,11,222,PAVILION,1,50.881,-121.829,63,9,0,1,1
124,11,223,PEMBERTON,0,50.144,-122.958,68,5,0,1,1
124,11,226,STELLA LAKE,1,50.183,-125.495,94,5,0,1,1
124,11,228,VICTORIA LK,0,50.285,-127.347,94,5,0,1,1
124,11,229,BLAEBERRY R.,1,51.417,-117.001,64,10,0,1,1
124,11,230,ILLECILEWAET,1,51.181,-117.762,64,10,0,1,1
124,11,232,ADAMS LAKE,1,51.416,-119.435,64,10,0,1,1
124,11,233,CHU CHUA,1,51.317,-120.150,64,9,0,1,1
124,11,234,LAC LA HACHE,1,51.979,-121.465,63,10,0,1,1
124,11,235,RISKE CREEK,1,51.956,-122.409,63,10,0,1,1
124,11,236,FLETCHER LAKE,1,51.795,-123.070,63,10,0,1,1
124,11,237,TATLA LAKE,1,51.983,-124.368,63,10,0,1,1
124,11,244,HORSEFLY,1,52.473,-121.385,63,10,0,1,1
124,11,245,MELDRUM CR.,1,52.124,-122.350,63,10,0,1,1
124,11,248,NIMPO LAKE,1,52.257,-125.089,63,10,0,1,1
124,11,254,SUGARBOWL MT,0,53.734,-121.743,63,10,0,1,1
124,11,255,PRINCE GEORG,1,53.942,-122.816,63,10,0,1,1
124,11,256,PUNCHAW,1,53.654,-122.961,63,10,0,1,1
124,11,265,SUMMIT LAKE,1,54.343,-122.652,63,10,0,1,1
124,11,267,CRIPPLE LAKE,1,54.521,-124.102,68,10,0,1,1
124,11,270,TELKWA HI RD,1,55.002,-127.319,68,10,0,1,1
124,11,271,KITSUMKALUM,0,54.829,-128.846,68,5,0,1,1
124,11,282,CRANBERRY,0,55.685,-128.746,94,5,0,1,1
124,11,284,Rose Prairie,1,56.587,-120.636,29,6,0,1,1
124,11,299,Port Clements,1,53.686,-132.180,94,5,0,1,1
124,11,300,Skidegate Lake,1,53.208,-131.793,94,5,0,1,1
124,11,304,Premier Lake,1,49.724,-115.793,64,10,0,1,1
124,11,309,UPPER ASHNOLA,1,49.039,-120.390,67,9,0,1,1
124,11,310,Silver Skagit Rd,1,49.002,-121.063,67,9,0,1,1
124,11,311,COQUITLAM,0,49.244,-122.690,94,5,0,1,1
124,11,313,DUCK LAKE,1,49.783,-124.179,94,5,0,1,1
124,11,323,PEM MEADOWS,1,50.211,-122.884,68,5,0,1,1
124,11,326,FORT NELSON RIVER,1,59.233,-123.252,29,6,0,1,1
124,11,328,Nawhiti Lake,1,50.681,-127.980,94,5,0,1,1
124,11,332,CORMIER CREEK,1,59.964,-129.069,68,4,0,1,1
124,11,335,Dog Creek,1,51.582,-122.255,63,10,0,1,1
124,11,339,HAINES SUMMIT,1,59.789,-136.596,68,4,0,1,1
124,11,371,Kitimat,1,54.001,-128.701,94,5,0,1,1
124,11,401,SALT SPR. IS,1,48.749,-123.548,94,5,0,1,1
124,11,402,COWICHAN LK.,1,48.823,-124.058,94,5,0,1,1
124,11,407,CHRISTIAN VL,1,49.710,-118.777,64,9,0,1,1
124,11,408,OLIVER,1,49.107,-119.280,64,9,0,1,1
124,11,409,BROOKMERE,1,49.777,-120.855,64,9,0,1,1
124,11,410,CHILLIWACK LAKE,1,49.026,-121.388,67,9,0,1,1
124,11,411,Maple Ridge,1,49.184,-122.535,94,5,0,1,1
124,11,412,SQUAMISH,0,49.474,-123.242,94,5,0,1,1
124,11,413,NANAIMO RIV,1,49.194,-124.099,94,5,0,1,1
124,11,414,COMOX LAKE,0,49.606,-125.255,94,5,0,1,1
124,11,419,CREIGHTON V,1,50.212,-118.772,64,9,0,1,1
124,11,420,CANOE POINT,1,50.816,-119.086,64,9,0,1,1
124,11,422,HAT CREEK,1,50.789,-121.612,64,9,0,1,1
124,11,423,DUFFEY LAKE,1,50.432,-122.256,68,9,0,1,1
124,11,426,QUADRA IS.,1,50.023,-125.160,94,5,0,1,1
124,11,430,SUCCOUR CR.,1,51.716,-117.530,64,10,0,1,1
124,11,454,BOWRON,1,53.734,-121.743,63,10,0,1,1
124,11,510,Chaumox,1,49.834,-121.572,94,9,0,1,1
124,11,511,Skookumchuk,1,49.929,-122.401,94,5,0,1,1
124,11,513,Texada Island,1,49.519,-124.147,94,5,0,1,1
124,11,514,COURTENAY,0,49.578,-125.203,94,5,0,1,1
124,11,608,PARK RILL,1,49.257,-119.526,64,9,0,1,1
124,11,609,BROMLEY,1,49.401,-120.224,64,9,0,1,1
124,11,611,Barrowtown,1,49.130,-122.029,94,5,0,1,1
124,11,612,SQUAMISH RIVER,1,49.687,-123.178,68,5,0,1,1
124,11,613,COOMBS,1,49.251,-124.357,94,5,0,1,1
124,11,614,Mt. Washington,1,49.642,-125.098,94,5,0,1,1
124,11,621,KAMLOOPS,1,50.575,-120.089,64,9,0,1,1
124,11,622,BOTANIE VALLEY,1,50.242,-121.582,64,9,0,1,1
124,11,709,OSPREY LAKE,1,49.720,-120.149,64,9,0,1,1
124,11,711,Mud Bay,1,49.066,-122.991,94,5,0,1,1
124,11,721,LOWER NICOLA,1,50.134,-120.950,64,9,0,1,1
124,11,900,SYRINGA CR,1,49.371,-117.943,64,10,0,1,3
840,14,1,HORSE CREEK,1,41.822,-123.005,93,5,0,1,1
840,14,2,CARRVILLE,0,41.142,-122.526,66,5,0,1,1
840,14,3,NUBIEBER,1,41.101,-121.257,85,9,0,1,1
840,14,4,CRESCENT CTY,1,41.696,-124.142,93,5,0,1,1
840,14,5,HONEYDEW,1,40.243,-124.123,93,5,0,1,1
840,14,6,HOLMES,1,40.415,-123.962,93,5,0,1,1
840,14,7,RED BLUFF,1,40.352,-122.306,92,32,0,1,1
840,14,8,LASSEN PARK,0,40.494,-121.426,66,15,0,1,1
840,14,9,EAGLE LAKE,1,40.576,-120.698,85,15,0,1,1
840,14,10,CALPELLA,0,39.265,-123.225,93,32,0,1,1
840,14,11,HULLVILLE,1,39.523,-122.941,92,5,0,1,1
840,14,12,PENNINGTON,1,39.275,-121.734,91,32,0,1,1
840,14,13,WESTVILLE,1,39.124,-120.760,66,15,0,1,1
840,14,14,FISH ROCK,1,38.804,-123.585,93,5,0,1,1
840,14,15,RUMSEY,1,38.979,-122.240,92,32,0,1,1
840,14,16,RIOVISTA,1,38.088,-121.752,91,32,0,1,1
840,14,17,COTTAGE SPGS,0,38.356,-120.212,66,15,0,1,1
840,14,18,DARDANELLE,1,38.343,-119.836,66,15,0,1,1
840,14,19,COLMA,0,37.685,-122.471,92,32,0,1,1
840,14,20,COLLEGEVILLE,0,37.925,-121.166,91,32,0,1,1
840,14,21,HUGHSON,1,37.595,-120.861,91,32,0,1,1
840,14,22,BASS LAKE,1,37.367,-119.630,92,15,0,1,1
840,14,23,BIG PINE,1,37.172,-118.022,88,9,0,1,1
840,14,24,CARUTHERS,1,36.547,-119.836,91,32,0,1,1
840,14,25,TRES PINOS,0,36.762,-121.175,92,32,0,1,1
840,14,26,OILFIELDS,1,36.313,-120.305,91,32,0,1,1
840,14,27,GRAVESBORO,0,36.771,-119.440,91,32,0,1,1
840,14,28,YOKOHL VAL,1,36.268,-118.992,92,32,0,1,1
840,14,29,UBEHEBE,1,36.713,-117.574,80,33,0,1,1
840,14,30,HAIWEE RES,1,36.156,-117.886,80,33,0,1,1
840,14,31,WILDROSE,1,36.538,-117.214,80,33,0,1,1
840,14,32,PARKFIELD,1,35.809,-120.531,92,32,0,1,1
840,14,33,BAKERSFIELD,1,35.180,-119.164,91,32,0,1,1
840,14,34,ONYX,1,35.734,-118.078,90,33,0,1,1
840,14,35,CALIF CITY,1,35.088,-117.917,83,33,0,1,1
840,14,36,GOLDSTONE,0,35.302,-116.916,83,33,0,1,1
840,14,37,VALLEY WELLS,1,35.474,-115.703,83,33,0,1,1
840,14,38,SANTA YNEZ,1,34.466,-120.069,92,32,0,1,1
840,14,39,FOSTER PARK,0,34.357,-119.314,92,32,0,1,1
840,14,40,WILLOW SPGS,0,34.840,-118.564,83,33,0,1,1
840,14,41,BARSTOW,1,34.624,-117.005,83,33,0,1,1
840,14,42,MT PINOS,0,34.834,-119.332,95,32,0,1,1
840,14,43,CADIZ,1,34.511,-115.490,82,33,0,1,1
840,14,44,PARKER DAM,1,34.289,-114.141,82,33,0,1,1
840,14,45,HARBOR LAKE,0,33.791,-118.292,90,32,0,1,1
840,14,46,MORENO,1,33.929,-117.121,90,32,0,1,1
840,14,47,OAK GROVE,1,33.399,-116.801,90,32,0,1,1
840,14,48,GLAMIS,1,33.045,-115.145,82,33,0,1,1
840,14,49,PALO VERDE,1,33.405,-114.729,82,33,0,1,1
840,14,50,SAN YSIDRO,1,32.543,-117.119,90,32,0,1,1
840,14,51,ANZA BORREGO,1,32.904,-116.233,90,33,0,1,1
840,14,52,HOLLISTER,0,36.824,-121.281,92,32,0,1,1
840,14,53,COALINGA,1,36.225,-120.519,92,32,0,1,1
840,14,54,ORANGE COVE,1,36.632,-119.305,92,32,0,1,1
840,14,55,LAKE SUCCESS,1,36.080,-118.899,92,32,0,1,1
840,14,56,DARWIN,1,36.318,-117.672,80,33,0,1,1
840,14,57,MORRO BAY,1,35.257,-120.888,92,32,0,1,1
840,14,58,EUREKA VAL,1,37.227,-117.761,80,33,0,1,1
840,14,59,INYOKERN,1,35.608,-117.800,83,33,0,1,1
840,14,60,LENWOOD,0,34.851,-117.147,83,33,0,1,1
840,14,61,LANE MTN,0,35.026,-116.962,83,33,0,1,1
840,14,62,IVANPAH,1,35.541,-115.429,83,33,0,1,1
840,14,63,TRONA,1,35.818,-117.342,83,33,0,1,1
840,14,64,TECOPA,1,35.804,-116.193,83,33,0,1,1
840,14,65,SODA LAKE,1,35.109,-116.144,83,33,0,1,1
840,14,66,BIG BEAR,0,34.333,-116.829,95,32,0,1,1
840,14,67,ESSEX,1,34.734,-115.244,83,33,0,1,1
840,14,68,FLYNN,1,34.976,-115.647,83,33,0,1,1
840,14,69,IRON MTNS,1,34.088,-115.104,82,33,0,1,1
840,14,70,COACHELLA CN,0,33.453,-115.714,82,33,0,1,1
840,14,71,POINT REYES,1,38.045,-122.867,93,32,0,1,1
840,14,72,AUBURN,0,38.899,-121.070,92,32,0,1,1
840,14,73,INGALLS,1,41.680,-120.713,85,9,0,1,1
840,14,74,MARTINS FY,1,41.202,-123.802,93,5,0,1,1
840,14,75,RIO DELL,1,40.528,-124.164,93,5,0,1,1
840,14,76,RAVENDALE,1,40.800,-120.365,89,9,0,1,1
840,14,77,SHASTA LAKE,1,40.874,-122.292,92,5,0,1,1
840,14,78,JOHNSVILLE,1,39.785,-120.633,66,15,0,1,1
840,14,79,COHASSET,1,39.994,-121.704,92,32,0,1,1
840,14,80,ORLAND,1,39.763,-122.239,91,32,0,1,1
840,14,81,NAVARRO,1,39.161,-123.582,93,5,0,1,1
840,14,82,WOODFORDS,1,38.775,-119.824,66,15,0,1,1
840,14,83,FAIRFAX,1,37.985,-122.591,93,32,0,1,1
840,14,84,BENTON,1,37.800,-118.530,88,9,0,1,1
840,14,85,LUCERNE VAL,1,34.458,-116.946,83,33,0,1,1
840,14,86,HAVASU LAKE,1,34.491,-114.407,82,33,0,1,1
840,14,87,NEEDLES,0,34.900,-114.667,83,33,0,1,1
840,14,88,COTTONWOOD,1,33.674,-115.802,82,33,0,1,1
840,14,89,NILAND,1,33.220,-115.485,82,33,0,1,1
840,14,90,BLYTHE,1,33.617,-114.623,82,33,0,1,1
840,14,91,POWAY,0,32.970,-117.016,90,32,0,1,1
840,14,92,ALAMO RIVER,1,32.847,-115.434,82,33,0,1,1
840,14,93,IMPERIAL DAM,0,32.882,-114.473,82,33,0,1,1
840,14,94,FT IRWIN,1,35.000,-116.936,83,33,0,1,1
840,14,95,LUMBERYARD,1,38.556,-120.291,66,15,0,1,1
840,14,96,BODIE,1,38.175,-119.194,88,9,0,1,1
840,14,97,ONO,1,40.516,-122.382,92,32,0,1,1
840,14,98,FOLSOM,1,38.720,-121.036,92,32,0,1,1
840,14,99,S CATALINA,1,33.366,-118.374,90,32,0,1,1
840,14,100,BRADSHAW TRAIL,1,33.379,-115.693,82,33,0,1,1
840,14,103,SAWMILL MTN,1,34.568,-118.557,92,32,0,1,1
840,14,104,TUJUNGA,1,34.258,-118.105,95,32,0,1,1
840,14,105,EL TORO,1,33.641,-117.579,90,32,0,1,1
840,14,106,MESA GRANDE,1,33.199,-116.786,90,32,0,1,1
840,14,107,LAKE HEMET,1,33.668,-116.671,95,32,0,1,1
840,14,108,CARMEL VAL,1,36.453,-121.696,92,32,0,1,1
840,14,109,CIMA,1,35.174,-115.412,83,33,0,1,1
840,14,110,GREENHORN MT,1,35.779,-118.570,92,15,0,1,1
840,14,111,VALYERMO,1,34.386,-117.691,95,32,0,1,1
840,14,112,PEARBLOSSOM,1,34.521,-117.941,90,33,0,1,1
840,14,113,FALLSVALE,0,34.081,-116.893,95,32,0,1,1
840,14,114,SISQUOC,1,34.738,-120.235,92,32,0,1,1
840,14,116,LONE PINE,1,36.507,-118.099,80,33,0,1,1
840,14,117,SILVER CITY,1,36.466,-118.655,92,15,0,1,1
840,14,118,LOCKWOOD VAL,1,34.738,-119.045,95,32,0,1,1
840,14,119,ELSINORE MTN,1,33.648,-117.410,90,32,0,1,1
840,14,120,CP PENDLETON,0,33.238,-117.393,90,32,0,1,1
840,14,121,MT LAGUNA,0,32.891,-116.472,92,32,0,1,1
840,14,122,CUYAMACA PK,1,32.985,-116.677,92,32,0,1,1
840,14,123,ADELAIDA,1,35.638,-120.855,92,32,0,1,1
840,14,124,DEATH VALLEY,1,36.437,-116.851,80,33,0,1,1
840,14,125,MARICOPA,1,35.059,-119.349,91,32,0,1,1
840,14,126,ANZA,0,33.500,-116.799,90,32,0,1,1
840,14,127,SANGER,1,36.699,-119.512,91,32,0,1,1
840,14,128,KELSO VALLEY,1,35.549,-118.207,92,33,0,1,1
840,14,129,MT BALDY,1,34.175,-117.677,92,32,0,1,1
840,14,130,GREEN VALLEY,1,34.245,-117.064,95,32,0,1,1
840,14,131,JOSHUA TREE,0,34.014,-116.163,83,33,0,1,1
840,14,132,KINGS CANYON,1,36.819,-118.909,92,15,0,1,1
840,14,133,ELIZABETH LK,1,34.669,-118.395,92,32,0,1,1
840,14,134,VENTUCOPA,1,34.819,-119.557,90,32,0,1,1
840,14,135,SANTA CRUZ I,0,33.998,-119.577,90,32,0,1,1
840,14,136,LAKE CACHUMA,1,34.674,-119.669,92,32,0,1,1
840,14,137,JACUMBA,1,32.612,-116.200,90,32,0,1,1
840,14,138,CRESTON,1,35.318,-120.508,92,32,0,1,1
840,14,139,GREENWATER V,1,36.051,-116.500,80,33,0,1,1
840,14,140,CARRIZO PLN,1,35.093,-119.730,91,32,0,1,1
840,14,141,WHITE RIVER,0,35.816,-118.845,92,32,0,1,1
840,14,142,MT PINOS 2,1,34.834,-119.330,95,32,0,1,1
840,14,145,SHAFTER,0,35.442,-119.287,91,32,0,1,1
840,14,147,ARVIN,1,35.223,-118.878,91,32,0,1,1
840,14,148,GLENN,1,39.551,-122.065,91,32,0,1,1
840,14,149,ATWATER,1,37.244,-120.670,91,32,0,1,1
840,14,150,BRAWLEY,1,32.942,-115.536,82,33,0,1,1
840,14,151,LIKELY,1,41.235,-120.337,85,9,0,1,1
840,14,152,CORDOVA,0,38.496,-121.459,91,32,0,1,1
840,14,153,GOLD HILL,1,38.769,-120.925,92,32,0,1,1
840,14,154,CROWLEY LAKE,1,37.638,-118.655,88,9,0,1,1
840,14,155,WESTLEY,1,37.514,-121.160,91,32,0,1,1
840,14,156,TUOLUMNE GROVE,1,37.747,-119.804,66,15,0,1,1
840,14,157,JACKSON,0,38.376,-120.667,92,32,0,1,1
840,14,158,SATTLEY,1,39.615,-120.426,85,15,0,1,1
840,14,159,OROVILLE,1,39.498,-121.609,91,32,0,1,1
840,14,160,LONGVALE,1,39.566,-123.398,93,5,0,1,1
840,14,161,TEHAMA,1,40.336,-121.916,92,32,0,1,1
840,14,162,HONEY LAKE,1,40.493,-120.108,89,9,0,1,1
840,14,163,REDDING,0,40.672,-122.322,92,32,0,1,1
840,14,164,JUNCTION CTY,1,40.659,-123.034,93,5,0,1,1
840,14,165,DAVIS CREEK,1,41.733,-120.375,85,9,0,1,1
840,14,166,DORRIS,1,42.000,-121.892,85,9,0,1,1
840,14,167,ORLEANS,0,41.303,-123.538,93,5,0,1,1
840,14,168,MACDOEL,1,41.822,-122.011,85,9,0,1,1
840,14,169,MCCLOUD,1,41.232,-122.136,85,5,0,1,1
840,14,170,BRIDGEPORT,0,38.259,-119.222,88,9,0,1,1
840,14,171,TRANQUILLITY,1,36.654,-120.261,91,32,0,1,1
840,14,172,MORAGA,1,37.818,-122.146,92,32,0,1,1
840,14,173,LOCKWOOD,1,35.922,-121.064,92,32,0,1,1
840,14,174,OFFIELD MTN,1,41.381,-123.488,66,5,0,1,1
840,14,175,MT SHASTA,1,41.400,-122.050,85,5,0,1,1
840,14,176,CLEAR LK RES,1,41.819,-121.069,85,9,0,1,1
840,14,177,CEDARVILLE,1,41.530,-120.172,89,9,0,1,1
840,14,178,ALDERPOINT,1,40.173,-123.604,93,5,0,1,1
840,14,179,YOLLA BOLLY,1,40.028,-122.639,92,32,0,1,1
840,14,180,BUTTE MEADOW,1,40.117,-121.576,66,15,0,1,1
840,14,181,GENESEE,1,40.202,-120.624,66,15,0,1,1
840,14,182,LAYTONVILLE,1,39.688,-123.485,93,5,0,1,1
840,14,183,BARTLETT SPS,1,39.184,-122.709,92,32,0,1,1
840,14,184,HIGGINS CORN,1,39.069,-121.010,92,15,0,1,1
840,14,185,DOWNIEVILLE,1,39.560,-120.828,66,15,0,1,1
840,14,186,MARK WEST,1,38.550,-122.719,92,32,0,1,1
840,14,187,ZAMORA,1,38.794,-121.840,91,32,0,1,1
840,14,188,RIVERTON,1,38.769,-120.447,66,15,0,1,1
840,14,189,COYOTE,1,37.252,-121.677,92,32,0,1,1
840,14,190,COPPEROPOLIS,1,37.983,-120.645,92,32,0,1,1
840,14,191,ONEALS,1,37.120,-119.701,92,32,0,1,1
840,14,192,DEEP SPRINGS,1,37.416,-118.004,88,9,0,1,1
840,14,193,BODEGA BAY,1,38.341,-123.048,93,5,0,1,1
840,14,194,WATERMAN GAP,1,37.212,-122.157,93,32,0,1,1
840,14,195,GREENFIELD,1,36.257,-121.423,92,32,0,1,1
840,14,196,ORA LOMA,1,36.879,-120.785,91,32,0,1,1
840,14,197,TIPTON,1,36.080,-119.304,91,32,0,1,1
840,14,198,YREKA,1,41.740,-122.633,85,5,0,1,1
840,14,199,BARTLE,1,41.253,-121.824,85,9,0,1,1
840,14,200,KORBEL,1,40.970,-123.840,93,5,0,1,1
840,14,201,HAT CREEK,1,40.819,-121.570,66,15,0,1,1
840,14,202,GLEN ELLEN,0,38.380,-122.514,92,32,0,1,1
840,14,203,LIVERMORE,0,37.665,-121.733,91,32,0,1,1
840,14,204,ATHLONE,1,37.142,-120.401,91,32,0,1,1
840,14,205,LAKESHORE,1,37.256,-119.161,66,15,0,1,1
840,14,210,UKIAH,1,39.163,-123.227,93,5,0,1,1
840,14,213,TAHOE NF,0,39.023,-120.810,66,15,0,1,1
840,14,220,JOFEGAN,1,33.307,-117.342,90,32,0,1,1
840,14,221,CLEVELAND NF,1,32.924,-116.480,92,32,0,1,1
840,14,225,TRES PINOS 2,1,36.750,-121.158,92,32,0,1,1
840,14,226,ANZA 2,1,33.501,-116.798,90,32,0,1,1
840,14,231,JOSHUA TREE 2,1,34.014,-116.163,83,33,0,1,1
840,14,235,SANTA CRUZ 2,0,34.000,-119.683,90,32,0,1,1
840,14,240,WILLOW SPRINGS 2,1,34.971,-118.149,83,33,0,1,1
840,14,245,BUENA VISTA,1,35.478,-119.296,91,32,0,1,1
840,14,252,Hollister 2,1,36.824,-121.281,92,32,0,1,1
840,14,260,LENWOOD 2,1,34.836,-117.168,83,33,0,1,1
840,14,267,ORLEANS 2,1,41.309,-123.532,93,5,0,1,1
840,14,302,GLEN ELLEN 2,1,38.380,-122.511,92,32,0,1,1
840,14,303,TRACY,0,37.665,-121.733,91,32,0,1,1
840,14,308,CHAOS CRATER,1,40.498,-121.428,66,15,0,1,1
840,14,313,ANGELUS OAKS,1,34.081,-116.887,95,32,0,1,1
840,14,319,PESCADERO,1,37.165,-122.228,93,32,0,1,1
840,14,320,COLLEGEVILLE 2,1,37.933,-121.166,91,32,0,1,1
840,14,341,CAL HOT SPGS,1,35.891,-118.850,92,32,0,1,1
840,14,345,Harbor Lake 2,1,33.791,-118.292,90,32,0,1,1
840,14,352,STATEN IS.,1,38.123,-121.525,91,32,0,1,1
840,14,357,POLOMA,1,38.354,-120.680,92,32,0,1,1
840,14,366,WOODLANDS,1,34.288,-116.767,95,32,0,1,1
840,14,401,HIOUCHI,1,41.802,-124.054,93,5,0,1,1
840,14,402,LONESOME RDG,1,41.304,-123.532,93,5,0,1,1
840,14,403,WHISKEYTOWN,1,41.005,-122.618,66,5,0,1,1
840,14,404,DIRIGIO,1,41.149,-122.317,66,5,0,1,1
840,14,405,HACKAMORE,1,41.609,-121.050,85,9,0,1,1
840,14,406,TIONESTA,1,41.671,-121.257,85,9,0,1,1
840,14,407,CROWDER FLAT,1,41.870,-120.501,85,9,0,1,1
840,14,408,MADELINE,1,41.053,-120.475,85,9,0,1,1
840,14,409,BURNT RANCH,1,40.803,-123.483,93,5,0,1,1
840,14,410,FRENCH GULCH,1,40.717,-122.636,66,5,0,1,1
840,14,411,TOMHEAD,1,40.180,-122.860,92,32,0,1,1
840,14,412,FALL RIVER MILLS,1,40.962,-121.579,66,9,0,1,1
840,14,413,CHESTER,1,40.305,-121.143,66,15,0,1,1
840,14,414,GOUMAZ,1,40.439,-120.836,85,15,0,1,1
840,14,415,PAXTON,1,40.040,-120.996,66,15,0,1,1
840,14,416,MEADOW VALLEY,1,39.949,-121.038,66,15,0,1,1
840,14,417,LITTLE TRUCKEE,1,39.511,-120.177,66,15,0,1,1
840,14,418,FOREST HILL,1,39.019,-120.826,66,15,0,1,1
840,14,419,POLLOCK PINES,1,38.740,-120.573,66,15,0,1,1
840,14,420,PLACERVILLE,1,38.800,-120.724,92,15,0,1,1
840,14,421,COULTERVILLE,1,37.710,-120.197,92,15,0,1,1
840,14,422,WAWONA,1,37.462,-119.794,92,15,0,1,1
840,14,423,PINE MOUNTAIN,1,36.011,-118.121,66,15,0,1,1
840,14,424,KERNVILLE,1,35.795,-118.449,92,15,0,1,1
840,14,425,SOUTH LAKE,1,35.692,-118.291,92,32,0,1,1
840,14,426,CRESTVIEW,1,37.777,-119.017,88,15,0,1,1
840,14,427,ALAMAR,1,34.707,-119.618,90,32,0,1,1
840,14,428,BIG FLAT,1,41.705,-123.898,93,5,0,1,1
840,14,429,CECILVILLE,1,41.082,-123.082,66,5,0,1,1
840,14,430,MEDICINE MTN.,1,41.534,-121.584,85,9,0,1,1
840,14,431,HAY FORK,1,40.490,-123.073,93,5,0,1,1
840,14,432,HOUGH SPRINGS,0,39.163,-122.613,92,32,0,1,1
840,14,433,CHILCOOT,1,39.798,-120.139,85,15,0,1,1
840,14,434,STRAWBERRY,1,38.170,-120.038,66,15,0,1,1
840,14,435,FRIDAY RIDGE,1,40.888,-123.605,93,5,0,1,1
840,14,436,LAST CHANCE,1,40.154,-120.545,66,15,0,1,1
840,14,437,Stonyford,1,39.383,-122.552,92,32,0,1,1
840,14,503,Tracy 2,1,37.665,-121.733,91,32,0,1,1
840,14,518,FOREST HILL 2,0,39.070,-120.568,66,15,0,1,1
840,14,536,SQUAW VALLEY,0,40.154,-120.546,66,15,0,1,1
840,14,900,IRON GATE,1,41.902,-122.563,85,9,0,1,3
840,14,901,GAZELLE,1,41.521,-122.520,85,5,0,1,3
840,14,902,SHIP MTN.,1,41.882,-123.819,93,5,0,1,3
840,14,903,PILOT CREEK,0,40.623,-123.640,93,5,0,1,3
840,14,905,FRIDAY RIDGE,0,40.702,-123.702,93,5,0,1,3
840,14,907,CHOLLA GARD.,1,33.925,-115.927,82,33,0,1,3
840,14,908,REDWOOD N.P.,0,41.262,-124.097,93,5,0,1,3
840,14,909,SAN BENITO MTN.,0,36.358,-120.779,92,32,0,1,3
840,14,918,Redwood N.P. 2,0,41.466,-124.040,93,5,0,1,3
840,14,953,SOUTH FORK MTN,1,40.623,-123.640,93,5,0,1,3
840,17,1,MAYBELL,1,40.740,-108.088,86,10,0,1,1
840,17,2,GREAT DIVIDE,1,40.840,-107.690,86,10,0,1,1
840,17,3,YAMPA,1,40.153,-106.875,84,16,0,1,1
840,17,4,HARMONY,1,40.509,-105.039,87,16,0,1,1
840,17,5,BRIGGSDALE,1,40.596,-104.203,36,18,0,1,1
840,17,6,PINNEO,1,40.210,-103.440,36,18,0,1,1
840,17,7,FLEMING,1,40.657,-102.934,36,18,0,1,1
840,17,8,DOUGLAS PASS,1,39.400,-108.812,84,16,0,1,1
840,17,9,BUFORD,1,39.966,-107.648,84,16,0,1,1
840,17,10,ASPEN,1,39.244,-106.761,62,16,0,1,1
840,17,11,CHEESMAN LK,1,39.221,-105.279,62,16,0,1,1
840,17,12,KIOWA,1,39.380,-104.369,87,18,0,1,1
840,17,13,LAST CHANCE,1,39.857,-103.649,36,18,0,1,1
840,17,14,ABARR,1,39.831,-102.633,36,18,0,1,1
840,17,15,DELTA,1,38.695,-108.139,84,16,0,1,1
840,17,16,COLONA,0,38.306,-107.963,62,16,0,1,1
840,17,17,PARLIN,1,38.514,-106.755,62,16,0,1,1
840,17,18,MOFFAT,1,38.026,-105.813,87,16,0,1,1
840,17,19,RUSH,1,38.840,-104.092,36,18,0,1,1
840,17,20,BOYERO,1,38.641,-103.228,36,18,0,1,1
840,17,21,LAMAR,1,38.144,-102.521,36,18,0,1,1
840,17,22,DOLORES,0,37.518,-108.536,84,16,0,1,1
840,17,23,FALFA,1,37.215,-107.792,84,16,0,1,1
840,17,24,PAGOSA SPGS,0,37.288,-106.837,62,16,0,1,1
840,17,25,BLANCA,0,37.287,-105.552,87,16,0,1,1
840,17,26,MICA BUTTE,0,37.620,-104.315,87,18,0,1,1
840,17,27,GILPIN,1,37.998,-103.198,36,18,0,1,1
840,17,28,TWO BUTTES,1,37.688,-102.292,36,18,0,1,1
840,17,31,WRAY GULCH,1,40.065,-108.415,84,16,0,1,1
840,17,32,WILSON CREEK,1,40.138,-107.970,84,16,0,1,1
840,17,33,WALDEN,1,40.880,-106.459,86,16,0,1,1
840,17,34,LOST LAKE,1,40.872,-105.908,62,16,0,1,1
840,17,35,HUDSON,1,40.305,-104.696,36,18,0,1,1
840,17,36,WILDHORSE L,1,40.848,-103.344,36,18,0,1,1
840,17,37,WAVERLY,1,40.263,-102.718,36,18,0,1,1
840,17,38,FRUITA,0,39.164,-108.701,87,16,0,1,1
840,17,39,WILLOW PEAK,1,39.664,-107.123,62,16,0,1,1
840,17,40,RED CLIFF,1,39.544,-106.221,62,16,0,1,1
840,17,41,TARRYALL,1,39.080,-105.416,62,16,0,1,1
840,17,42,ADAMS CO.,1,39.841,-104.189,36,18,0,1,1
840,17,43,GORDON CREEK,1,39.611,-103.123,36,18,0,1,1
840,17,44,BETHUNE,1,39.388,-102.427,36,18,0,1,1
840,17,45,UNCOMPAHGRE,1,38.740,-108.624,62,16,0,1,1
840,17,46,CASTLETON,1,38.592,-106.917,62,16,0,1,1
840,17,47,DOYLEVILLE,1,38.511,-106.554,62,16,0,1,1
840,17,48,GUFFEY,1,38.983,-105.575,62,16,0,1,1
840,17,49,EDISON,1,38.695,-104.072,36,18,0,1,1
840,17,50,CROWLEY,1,38.175,-103.949,36,18,0,1,1
840,17,51,CHEYENNE,1,38.693,-102.591,36,18,0,1,1
840,17,52,DOLORES RIV,1,37.791,-108.020,62,16,0,1,1
840,17,53,LAKE CITY,0,37.986,-107.224,62,16,0,1,1
840,17,54,PINOS CREEK,0,37.480,-106.452,62,16,0,1,1
840,17,55,ALAMOSA,1,37.181,-105.746,87,16,0,1,1
840,17,56,TRINCHERA,1,37.045,-104.059,87,18,0,1,1
840,17,57,VILLEGREEN,1,37.218,-103.520,87,18,0,1,1
840,17,58,CAMPO,1,37.105,-102.580,36,18,0,1,1
840,17,116,COLONA 2,1,38.306,-107.963,62,16,0,1,1
840,17,122,CORTEZ,0,37.517,-108.465,84,16,0,1,1
840,17,124,BLACKHEAD PK,1,37.288,-106.838,62,16,0,1,1
840,17,125,SAN LUIS,1,37.287,-105.553,87,16,0,1,1
840,17,126,CONE MTN,1,37.626,-104.310,87,18,0,1,1
840,17,138,Rosevale,1,39.052,-108.576,84,16,0,1,1
840,17,153,RIO GRNDS RS,1,37.779,-107.004,62,16,0,1,1
840,17,154,SUMMITVILLE,1,37.633,-106.425,62,16,0,1,1
840,17,201,BROWNS PARK,1,40.617,-108.674,84,10,0,1,1
840,17,202,DUNCKLEY PAS,1,40.210,-107.033,62,16,0,1,1
840,17,203,BUFFALO PARK,1,40.133,-106.491,62,16,0,1,1
840,17,204,DEADMAN RD.,1,40.760,-105.472,62,16,0,1,1
840,17,205,GROVER,1,40.857,-104.542,36,18,0,1,1
840,17,206,STONEHAM,1,40.581,-103.658,36,18,0,1,1
840,17,207,AMHERST,1,40.614,-102.085,36,18,0,1,1
840,17,208,DE BEQUE,1,39.513,-108.462,84,16,0,1,1
840,17,209,FLATTOPS,1,39.647,-107.617,62,16,0,1,1
840,17,210,THOMASVILLE,1,39.379,-106.814,62,16,0,1,1
840,17,211,GUANELLA PAS,1,39.667,-105.850,62,16,0,1,1
840,17,212,PROSPECT VAL,0,39.986,-104.510,36,18,0,1,1
840,17,213,LIMON,1,39.374,-103.787,36,18,0,1,1
840,17,214,KIRK,1,39.534,-102.592,36,18,0,1,1
840,17,215,PINON,1,38.266,-108.349,62,16,0,1,1
840,17,216,PAONIA,1,38.839,-107.603,84,16,0,1,1
840,17,217,TINCUP,1,38.747,-106.431,62,16,0,1,1
840,17,218,WET MTNS.,1,38.367,-105.229,62,16,0,1,1
840,17,219,DOYLE BRIDGE,0,38.045,-104.451,36,18,0,1,1
840,17,220,HASWELL,1,38.172,-103.235,36,18,0,1,1
840,17,221,NEEGRANDE,1,38.296,-102.738,36,18,0,1,1
840,17,222,GROUNDHOG RS,1,37.780,-108.089,62,16,0,1,1
840,17,223,PIEDRA,1,37.233,-107.184,62,16,0,1,1
840,17,224,FOX CREEK,1,37.059,-106.192,62,16,0,1,1
840,17,225,MOSCA,1,37.691,-105.928,87,16,0,1,1
840,17,226,COKEDALE,1,37.114,-104.605,84,16,0,1,1
840,17,227,NINAVIEW,1,37.520,-103.111,87,18,0,1,1
840,17,228,EDLER,1,37.164,-102.277,36,18,0,1,1
840,17,253,Lake City 2,1,37.941,-107.159,62,16,0,1,1
840,17,301,DINOSAUR,1,40.278,-108.560,84,16,0,1,1
840,17,302,LAY,1,40.668,-107.862,86,10,0,1,1
840,17,303,STEAMBOAT L.,1,40.675,-106.933,62,16,0,1,1
840,17,304,COMANCHE PK,1,40.569,-105.428,62,16,0,1,1
840,17,305,NUNN,1,40.863,-104.639,36,18,0,1,1
840,17,306,FORT MORGAN,1,40.349,-103.800,36,18,0,1,1
840,17,307,JULESBURG,1,40.968,-102.326,36,18,0,1,1
840,17,308,BAXTER PASS,1,39.443,-108.955,84,16,0,1,1
840,17,309,RAGGED MTN.,1,39.080,-107.368,62,16,0,1,1
840,17,310,WESTON PASS,0,39.153,-106.409,62,16,0,1,1
840,17,311,COMO,1,39.411,-105.969,62,16,0,1,1
840,17,312,BENNETT,1,39.724,-104.377,36,18,0,1,1
840,17,313,FLAGLER,1,39.568,-103.024,36,18,0,1,1
840,17,314,BURLINGTON,1,39.172,-102.111,36,18,0,1,1
840,17,315,BASIN,1,38.069,-108.461,87,16,0,1,1
840,17,316,POWDERHORN,1,38.465,-107.263,62,16,0,1,1
840,17,317,MARSHALL PAS,1,38.448,-106.107,62,16,0,1,1
840,17,318,GRIBBLES PRK,1,38.644,-105.779,62,16,0,1,1
840,17,319,ELLICOTT,1,38.550,-104.459,36,18,0,1,1
840,17,320,KARVAL,1,38.762,-103.349,36,18,0,1,1
840,17,321,SHERIDAN LAK,1,38.246,-102.211,36,18,0,1,1
840,17,322,MCPHEE RES.,1,37.840,-108.761,84,16,0,1,1
840,17,323,ANIMAS,0,37.237,-107.870,84,16,0,1,1
840,17,324,SOUTH FORK,1,37.649,-106.653,62,16,0,1,1
840,17,325,ANTONITO,0,37.099,-105.521,87,16,0,1,1
840,17,326,WALSENBURG,1,37.618,-104.775,84,16,0,1,1
840,17,327,TIMPAS,1,37.951,-103.876,36,18,0,1,1
840,17,328,PRITCHETT,1,37.207,-102.868,36,18,0,1,1
840,17,351,ANGORA,1,40.204,-108.754,84,16,0,1,1
840,17,352,YELLOWJACKET PASS,1,40.052,-107.874,84,16,0,1,1
840,17,353,STILLWATER PASS,0,40.313,-105.979,62,16,0,1,1
840,17,354,GOLD HILL,1,40.021,-105.296,62,16,0,1,1
840,17,358,PICEANCE BASIN,0,39.823,-108.165,84,16,0,1,1
840,17,359,RIFLE FALLS,1,39.758,-107.692,84,16,0,1,1
840,17,360,RADIUM,0,39.954,-106.558,62,16,0,1,1
840,17,361,ROLLINS PASS,1,39.824,-105.524,62,16,0,1,1
840,17,362,ELBERT,1,39.000,-104.738,87,18,0,1,1
840,17,365,NUCLA,1,38.270,-108.537,62,16,0,1,1
840,17,366,OWL CREEK PASS,1,38.174,-107.742,62,16,0,1,1
840,17,367,COCHETOPA PASS,1,38.054,-106.865,62,16,0,1,1
840,17,368,WESTCLIFFE,1,38.150,-105.514,62,16,0,1,1
840,17,372,HAYCAMP MESA,1,37.443,-108.474,62,16,0,1,1
840,17,373,LIZARD HEAD PASS,1,37.943,-107.822,62,16,0,1,1
840,17,374,MOON PASS,1,37.839,-106.256,62,16,0,1,1
840,17,375,GARDNER,1,37.941,-105.232,84,16,0,1,1
840,17,376,LUDLOW,1,37.339,-104.585,84,16,0,1,1
840,17,377,BLACK SULPHUR CR,1,39.872,-108.285,84,16,0,1,1
840,17,378,HEENEY,1,39.846,-106.236,62,16,0,1,1
840,17,410,WESTON PASS 2,1,39.131,-106.179,62,16,0,1,1
840,17,412,PROSPECT VALLEY 2,1,39.985,-104.509,36,18,0,1,1
840,17,419,DOYLE BRIDGE 2,1,38.064,-104.419,36,18,0,1,1
840,17,422,Cortez 2,1,37.517,-108.465,84,16,0,1,1
840,17,423,ANIMAS 2,1,37.231,-107.870,84,16,0,1,1
840,17,425,MESITA,1,37.099,-105.521,87,16,0,1,1
840,17,453,Stillwater Pass 2,1,40.180,-106.008,62,16,0,1,1
840,17,900,ARSENAL,0,39.813,-104.799,36,18,0,1,3
840,17,901,ROCKPORT,1,40.812,-104.791,36,18,0,1,3
840,17,902,MOUNT EVANS,1,39.685,-105.372,62,16,0,1,3
840,17,903,MESAVERDE NP,1,37.270,-108.482,84,16,0,1,3
840,17,904,TRAIL RIDGE ROAD,1,40.432,-105.763,62,16,0,1,3
840,17,905,ARSENAL 2,1,39.827,-104.801,36,18,0,1,3
840,18,1,MYSTIC,1,41.336,-71.964,12,30,0,1,1
840,18,2,E HARTLAND,0,41.698,-72.910,12,30,0,1,1
840,18,3,BUCKINGHAM,1,41.703,-72.516,12,30,0,1,1
840,18,4,UNCASVILLE,1,41.418,-72.153,12,30,0,1,1
840,18,5,WOODSTOCK,0,41.941,-72.139,12,30,0,1,1
840,18,6,WESTBROOK,1,41.271,-72.498,12,30,0,1,1
840,18,7,WILLIMANTIC,1,41.777,-72.135,12,30,0,1,1
840,18,8,NO WOODBURY,1,41.549,-73.217,12,30,0,1,1
840,18,9,SHERMAN,1,41.539,-73.501,12,28,0,1,1
840,18,10,GREENWICH,1,41.052,-73.617,12,30,0,1,1
840,18,11,DANBURY,1,41.336,-73.531,12,30,0,1,1
840,18,12,WARREN,0,41.749,-73.350,12,30,0,1,1
840,18,13,LONG HILL,1,41.252,-73.247,12,30,0,1,1
840,18,14,MID HADDAM,1,41.565,-72.591,12,30,0,1,1
840,18,15,SOUTHINGTON,1,41.583,-72.851,12,30,0,1,1
840,18,16,NEW HARTFORD,0,41.878,-72.957,12,14,0,1,1
840,18,102,NEW HARTFORD,1,41.738,-72.927,12,14,0,1,1
840,18,105,WOODSTOCK 2,1,41.941,-72.139,12,30,0,1,1
840,18,112,WARREN 2,1,41.749,-73.350,12,30,0,1,1
840,18,116,GRANBY,1,41.881,-72.956,12,30,0,1,1
840,21,1,MT PLEASANT,1,39.500,-75.686,4,30,0,1,1
840,21,2,WILMINGTON,1,39.752,-75.587,4,30,0,1,1
840,21,3,HARRINGTON,1,38.959,-75.537,4,30,0,1,1
840,21,4,FREDERICA,1,39.029,-75.465,4,30,0,1,1
840,21,5,DOVER,0,39.030,-75.459,4,30,0,1,1
840,21,6,FRANKFORD,1,38.534,-75.180,4,30,0,1,1
840,21,7,HOLLEYVILLE,0,38.674,-75.235,4,30,0,1,1
840,21,8,LOWES XRDS,0,38.504,-75.433,4,30,0,1,1
840,21,9,BETHANY BCH,0,38.580,-75.061,4,30,0,1,1
840,21,10,MILTON,1,38.748,-75.290,4,30,0,1,1
840,21,105,BLACKBIRD,1,39.371,-75.639,4,30,0,1,1
840,21,107,HOLLEYVILLE 2,1,38.674,-75.235,4,30,0,1,1
840,21,108,PEPPERBOX,1,38.504,-75.433,4,30,0,1,1
840,21,109,GEORGETOWN,1,38.732,-75.464,4,30,0,1,1
840,21,900,Test Route X,0,39.030,-75.459,4,30,0,1,1
840,21,901,Test Route Y,0,39.030,-75.459,4,30,0,1,1
840,21,921,Test Route Z,0,39.030,-75.459,4,30,0,1,1
840,25,1,OAK GROVE,1,30.929,-87.408,4,27,0,1,1
840,25,2,FT WALTN BCH,1,30.376,-86.276,3,27,0,1,1
840,25,3,MOSSY HEAD,1,30.519,-86.481,3,27,0,1,1
840,25,4,BLOUNTSTOWN,1,30.529,-85.133,3,27,0,1,1
840,25,5,BROAD BRANCH,1,30.337,-85.287,3,27,0,1,1
840,25,6,MICCOSUKEE,1,30.595,-84.041,4,27,0,1,1
840,25,7,SEMINOLE HLS,0,30.390,-85.900,3,27,0,1,1
840,25,8,TELOGIA,0,30.336,-84.991,3,27,0,1,1
840,25,9,PORT ST JOE,0,29.782,-85.300,3,27,0,1,1
840,25,10,COVINGTON,1,30.273,-83.857,3,27,0,1,1
840,25,11,STEINHATCHEE,1,29.669,-83.378,3,27,0,1,1
840,25,12,BELMONT,1,30.503,-82.734,3,27,0,1,1
840,25,13,MICANOPY,0,29.547,-82.263,3,31,0,1,1
840,25,14,ROMEO,1,29.192,-82.395,3,31,0,1,1
840,25,15,FT GADSDEN,1,29.988,-84.976,3,27,0,1,1
840,25,16,DALE MABRY,0,28.036,-82.505,2,31,0,1,1
840,25,17,MYAKKA HEAD,0,27.444,-82.119,2,31,0,1,1
840,25,18,ST AUGUSTINE,1,29.890,-81.344,3,31,0,1,1
840,25,19,HILLIARD,1,30.720,-81.906,3,27,0,1,1
840,25,20,SAN ANTONIO,1,28.327,-82.302,2,31,0,1,1
840,25,21,BELMORE,1,29.897,-81.834,3,31,0,1,1
840,25,22,POLK CITY,1,28.179,-81.861,2,31,0,1,1
840,25,23,MABEL,0,28.572,-81.982,2,31,0,1,1
840,25,24,CHILDS,1,27.323,-81.419,2,31,0,1,1
840,25,25,SCOTTSMOOR,1,28.748,-80.871,2,31,0,1,1
840,25,26,SUNNILAND GR,1,26.294,-81.449,2,31,0,1,1
840,25,27,FT LONESOME,1,27.661,-82.146,2,31,0,1,1
840,25,28,PINECREST,1,25.751,-80.968,2,31,0,1,1
840,25,29,ALTURAS,0,27.901,-81.719,2,31,0,1,1
840,25,30,KENANSVILLE,1,27.963,-80.967,2,31,0,1,1
840,25,31,INDIANTOWN,1,26.966,-80.385,2,31,0,1,1
840,25,32,SALVISTA,0,26.779,-81.937,2,31,0,1,1
840,25,33,BROWARD,0,26.063,-80.431,1,31,0,1,1
840,25,35,TAMIAMI,0,25.658,-80.766,1,31,0,1,1
840,25,36,PLANTATION K,0,25.002,-80.536,1,31,0,1,1
840,25,37,SANDERSON,1,30.253,-82.162,3,27,0,1,1
840,25,38,DOCTOR INLET,0,30.100,-81.807,3,27,0,1,1
840,25,39,BOCA RATON,0,26.368,-80.203,2,31,0,1,1
840,25,40,ANDYTOWN,0,26.059,-80.434,1,31,0,1,1
840,25,51,SANTA ROSA,0,30.333,-87.140,3,27,0,1,1
840,25,52,BLACKWATER,1,30.721,-86.786,3,27,0,1,1
840,25,53,DEFUNIAK SPR,1,30.718,-86.116,3,27,0,1,1
840,25,54,BETTS,1,30.534,-85.243,3,27,0,1,1
840,25,55,MILLER XRDS,1,30.950,-85.742,4,27,0,1,1
840,25,56,HIXTOWN SWMP,1,30.293,-83.668,3,27,0,1,1
840,25,57,BLOXHAM,1,30.388,-84.664,3,27,0,1,1
840,25,58,DOWLING PARK,1,30.351,-83.340,3,27,0,1,1
840,25,59,HILDRETH,0,30.021,-82.811,3,27,0,1,1
840,25,60,CALLAHAN,1,30.520,-81.952,3,27,0,1,1
840,25,61,PINETTA,1,30.519,-83.216,3,27,0,1,1
840,25,62,ALLIGATOR PT,1,29.947,-84.341,3,27,0,1,1
840,25,63,FT MCCOY,1,29.536,-81.877,3,31,0,1,1
840,25,64,DEANVILLE,1,29.408,-81.198,2,31,0,1,1
840,25,65,FLEMINGTON,0,29.117,-82.218,3,31,0,1,1
840,25,66,NOBLETON,1,28.647,-82.172,2,31,0,1,1
840,25,67,PENNYWASH CR,1,28.101,-80.898,2,31,0,1,1
840,25,68,WINTER GARDN,1,28.690,-81.547,2,31,0,1,1
840,25,69,KISSIMMEE,1,28.323,-81.337,2,31,0,1,1
840,25,70,PLEASANT GR,0,27.770,-82.335,2,31,0,1,1
840,25,71,SANDY,0,27.292,-82.056,2,31,0,1,1
840,25,72,GARDNER,0,27.427,-81.583,2,31,0,1,1
840,25,73,ARBUCKLE,1,27.761,-81.454,2,31,0,1,1
840,25,74,ST LUCIE,1,27.236,-80.547,2,31,0,1,1
840,25,75,SEBASTIAN,0,27.860,-80.449,2,31,0,1,1
840,25,76,SHAWANO,0,26.336,-80.536,1,31,0,1,1
840,25,77,DAVIE,1,26.086,-80.229,1,31,0,1,1
840,25,78,KENDALL,0,25.604,-80.410,1,31,0,1,1
840,25,79,HOMESTEAD,1,25.491,-80.543,1,31,0,1,1
840,25,80,KEY LARGO,0,25.384,-80.372,1,31,0,1,1
840,25,81,DEVILS GARDN,1,26.559,-81.127,2,31,0,1,1
840,25,82,PALMDALE,1,26.875,-81.359,2,31,0,1,1
840,25,83,KEY WEST,0,24.673,-81.245,1,31,0,1,1
840,25,84,CROSS CITY,1,29.686,-83.067,3,27,0,1,1
840,25,85,ARIPEKA,1,28.276,-82.635,2,31,0,1,1
840,25,86,ALVA,1,26.946,-81.761,2,31,0,1,1
840,25,87,WEAVER STN,1,25.932,-81.657,1,31,0,1,1
840,25,88,CLEWISTON,1,26.750,-80.902,1,31,0,1,1
840,25,105,NIXON,0,30.372,-85.272,3,27,0,1,1
840,25,107,NEW HOPE,0,30.537,-85.836,3,27,0,1,1
840,25,108,BRISTOL,1,30.324,-85.005,3,27,0,1,1
840,25,109,PORT ST JOE 2,1,29.782,-85.300,3,27,0,1,1
840,25,113,ISLAND GROVE,1,29.455,-82.119,3,31,0,1,1
840,25,116,CITRUS PARK,1,28.040,-82.509,2,31,0,1,1
840,25,117,Myakka Head 2,1,27.432,-82.407,2,31,0,1,1
840,25,123,Mabel 2,1,28.572,-81.982,2,31,0,1,1
840,25,129,LAKE BUFFUM,1,27.901,-81.719,2,31,0,1,1
840,25,132,PUNTA GORDA,1,26.930,-82.033,2,31,0,1,1
840,25,135,FLAMINGO,1,25.139,-80.934,1,31,0,1,1
840,25,137,GLEN ST. MARY,0,30.252,-82.163,3,27,0,1,1
840,25,138,Doctors Inlet 2,1,30.100,-81.807,3,27,0,1,1
840,25,151,Laurel Hill,1,30.966,-86.455,3,27,0,1,1
840,25,159,Hildreth 2,1,30.019,-82.811,3,27,0,1,1
840,25,165,MT. OLIVE,1,29.187,-82.285,3,31,0,1,1
840,25,170,Pleasant Grove 2,1,27.770,-82.335,2,31,0,1,1
840,25,171,SANDY 2,1,27.292,-82.056,2,31,0,3,1
840,25,172,CREWSVILLE,1,27.497,-81.600,2,31,0,1,1
840,25,175,VERO BEACH,1,27.861,-80.449,2,31,0,1,1
840,25,176,SHAWANO 2,0,26.685,-80.389,1,31,0,1,1
840,25,178,REDLANDS,1,25.619,-80.415,1,31,0,1,1
840,25,180,CARD SOUND,1,25.310,-80.393,1,31,0,1,1
840,25,183,SUGARLOAF KEY,0,24.676,-81.240,1,31,0,1,1
840,25,207,SEMINOLE HILLS 2,1,30.814,-85.780,3,27,0,1,1
840,25,283,SUGARLOAF KEY 2,1,24.598,-81.583,1,31,0,1,1
840,25,901,APALACHICOLA,1,30.263,-84.655,3,27,0,1,3
840,25,902,OSCEOLA,1,30.379,-82.359,3,27,0,1,3
840,25,903,OCALA,1,29.397,-81.808,2,31,0,1,3
840,25,904,LOVEDALE,1,30.964,-85.118,4,27,0,1,3
840,25,905,CROOM,1,28.582,-82.187,2,31,0,1,3
840,25,906,GREEN SWAMP,1,28.303,-81.918,2,31,0,1,3
840,25,907,PINELANDS,1,25.406,-80.614,1,31,0,1,3
840,25,908,Citrus,1,28.800,-82.381,2,31,0,1,3
840,25,909,Goethe,1,29.097,-82.583,3,31,0,1,3
840,25,910,WEBB,1,26.818,-81.925,2,31,0,1,3
840,25,911,CORBETT,1,26.854,-80.268,2,31,0,1,3
840,25,912,HOLEY LAND,1,26.335,-80.540,1,31,0,1,3
840,25,913,BABCOCK RNCH,0,26.833,-81.683,2,31,0,1,3
840,25,915,MERRITT ISL,0,28.786,-80.801,2,31,0,1,3
840,25,916,RIDGE HARBOR,1,26.995,-81.959,2,31,0,1,3
840,25,917,OLUSTEE,1,30.220,-82.408,3,27,0,1,3
840,25,918,WILDERNES PK,1,28.569,-80.997,3,31,0,1,3
840,25,919,DUPUIS W.E.A,1,26.994,-80.574,2,31,0,1,3
840,25,920,EGLIN A.F.B.,1,30.426,-86.756,3,27,0,1,3
840,25,921,ST VINCENT I,1,29.680,-85.215,3,27,0,1,3
840,25,922,CHASSAHOWITZ,1,28.679,-82.566,2,31,0,1,3
840,25,923,SANTA ROSA GUIS,0,30.331,-87.295,3,27,0,1,3
840,25,925,MERRITT ISLAND 2,0,28.786,-80.801,2,31,0,1,3
840,27,1,HARRIETTS BL,1,30.873,-81.576,3,27,0,1,1
840,27,2,OKEFENOKEE,0,30.705,-82.069,3,27,0,1,1
840,27,3,DARIEN,1,31.364,-81.418,3,27,0,1,1
840,27,4,STOCKTON,1,30.928,-83.029,3,27,0,1,1
840,27,5,BAXLEY,1,31.970,-82.356,4,27,0,1,1
840,27,6,FOWLSTOWN,1,30.820,-84.523,4,27,0,1,1
840,27,7,FITZGERALD,1,31.706,-83.244,4,27,0,1,1
840,27,8,EVERETT CITY,1,31.392,-81.643,3,27,0,1,1
840,27,9,COURTHOUSE,1,31.887,-84.973,4,27,0,1,1
840,27,10,CUTHBERT,1,31.746,-84.720,4,27,0,1,1
840,27,11,GUYTON,0,32.344,-81.360,3,27,0,1,1
840,27,12,LYONS,0,32.108,-82.371,4,27,0,1,1
840,27,13,WRIGHTSVILLE,1,32.737,-82.765,4,27,0,1,1
840,27,14,HAWKINSVILLE,1,32.399,-83.452,4,27,0,1,1
840,27,15,FORSYTH,1,33.006,-83.991,11,29,0,1,1
840,27,16,CREST,1,32.937,-84.495,11,29,0,1,1
840,27,17,WAYCROSS,0,31.199,-82.231,3,27,0,1,1
840,27,18,NASHVILLE,1,31.212,-83.257,4,27,0,1,1
840,27,19,LINCOLNTON,1,33.789,-82.480,11,29,0,1,1
840,27,20,MAXEYS,1,33.754,-83.174,11,29,0,1,1
840,27,21,NEWTON,1,31.291,-84.406,4,27,0,1,1
840,27,22,HOLLONVILLE,0,33.182,-84.481,11,29,0,1,1
840,27,23,FAIRPLAY,0,33.636,-84.885,11,29,0,1,1
840,27,24,ATHENS,1,34.032,-83.316,11,29,0,1,1
840,27,25,COTTON,1,31.123,-84.073,4,27,0,1,1
840,27,26,OAKMAN,1,34.566,-84.728,13,28,0,1,1
840,27,27,CARTERSVILLE,1,34.055,-84.787,11,28,0,1,1
840,27,28,HENDERSON,1,32.378,-83.789,4,27,0,1,1
840,27,29,DOLES,1,31.611,-83.914,4,27,0,1,1
840,27,30,BALDWIN,1,34.495,-83.542,11,29,0,1,1
840,27,31,SILOAM,1,33.520,-83.096,11,29,0,1,1
840,27,32,GROVETOWN,1,33.488,-82.200,11,29,0,1,1
840,27,33,LACROSS,1,32.182,-84.268,4,27,0,1,1
840,27,34,JACKSONBORO,1,32.883,-81.638,4,27,0,1,1
840,27,35,MACON,1,32.946,-83.648,4,27,0,1,1
840,27,36,BOWDON,1,33.538,-85.253,11,29,0,1,1
840,27,37,LINWOOD,1,34.669,-85.346,13,28,0,1,1
840,27,38,TAZEWELL,1,32.315,-84.564,4,27,0,1,1
840,27,39,SHANNON,1,34.386,-85.049,13,28,0,1,1
840,27,40,BAXTER,1,34.764,-84.069,23,28,0,1,1
840,27,41,MOUNTAIN CTY,1,34.917,-83.407,23,28,0,1,1
840,27,42,HOLLY SPRS,0,34.139,-84.464,11,29,0,1,1
840,27,43,HIRAM,1,33.909,-84.748,11,29,0,1,1
840,27,44,STOCKBRIDGE,1,33.631,-84.219,11,29,0,1,1
840,27,45,RUTLEDGE,1,33.610,-83.604,11,29,0,1,1
840,27,46,JULIETTE,1,33.105,-83.812,11,29,0,1,1
840,27,47,WASHINGTON,1,33.648,-82.676,11,29,0,1,1
840,27,48,DEEPSTEP,1,33.029,-82.831,4,27,0,1,1
840,27,49,FINLEYSON,1,32.147,-83.578,4,27,0,1,1
840,27,50,RENTZ,1,32.175,-82.953,4,27,0,1,1
840,27,51,WADLEY,1,32.890,-82.367,4,27,0,1,1
840,27,52,PITTS,1,31.914,-83.553,4,27,0,1,1
840,27,53,WORKMORE,1,31.935,-82.939,4,27,0,1,1
840,27,54,DOVER,1,32.649,-81.693,4,27,0,1,1
840,27,55,DOUGLAS,0,31.457,-82.802,4,27,0,1,1
840,27,56,KELLER,0,31.766,-81.246,3,27,0,1,1
840,27,57,BOSTON,1,30.665,-83.801,4,27,0,1,1
840,27,58,NEEDMORE,0,30.601,-82.707,3,27,0,1,1
840,27,102,FOLKSTON,1,30.741,-82.071,3,27,0,1,1
840,27,111,PINEORA,1,32.329,-81.426,3,27,0,1,1
840,27,112,VIDALIA,1,32.108,-82.371,4,27,0,1,1
840,27,117,WARE CO,1,31.199,-82.230,3,27,0,1,1
840,27,119,METASVILLE,0,33.728,-82.567,11,29,0,1,1
840,27,122,HOLLONVILLE 2,1,33.182,-84.481,11,29,0,1,1
840,27,123,WHITESBURG,1,33.636,-84.886,11,29,0,1,1
840,27,142,SUTALLEE,1,34.223,-84.618,11,29,0,1,1
840,27,155,COFFEE CO,1,31.458,-82.802,4,27,0,1,1
840,27,156,RICEBORO,1,31.617,-81.627,3,27,0,1,1
840,27,158,TARVER,1,30.601,-82.707,3,27,0,1,1
840,27,301,WOODBINE,1,30.929,-81.672,3,27,0,1,1
840,27,302,COUNCIL,1,30.585,-82.469,3,27,0,1,1
840,27,303,HEADLIGHT,1,30.816,-82.711,3,27,0,1,1
840,27,304,BIG OAK,1,31.060,-81.939,3,27,0,1,1
840,27,305,COLONELS ISLAND,1,31.728,-81.259,3,27,0,1,1
840,27,306,GLENMORE,1,31.122,-82.805,3,27,0,1,1
840,27,307,THORNTON ROAD,1,31.699,-82.400,4,27,0,1,1
840,27,308,UNION,1,32.483,-82.055,4,27,0,1,1
840,27,309,MILLEN,1,32.639,-81.844,4,27,0,1,1
840,27,310,WHITE HILL,1,32.698,-81.477,4,27,0,1,1
840,27,311,OUSLEY,1,30.795,-83.431,3,27,0,1,1
840,27,312,SHILOH,1,30.940,-83.408,4,27,0,1,1
840,27,313,WEBER,1,31.237,-83.140,4,27,0,1,1
840,27,314,OWENSBORO,1,31.912,-83.395,4,27,0,1,1
840,27,315,MINTER TWEED,1,32.453,-82.757,4,27,0,1,1
840,27,316,BETHANY,1,30.858,-84.724,4,27,0,1,1
840,27,317,PHILEMA,1,31.754,-84.017,4,27,0,1,1
840,27,318,DICKEY,1,31.557,-84.658,4,27,0,1,1
840,27,319,BARGES,1,31.956,-84.693,4,27,0,1,1
840,27,320,Irwinton,1,32.801,-83.029,4,27,0,1,1
840,27,321,LAKEVIEW,1,32.547,-83.746,4,27,0,1,1
840,27,322,ROLAND,1,32.859,-84.416,11,29,0,1,1
840,27,323,CARRS STATION,1,33.170,-83.120,11,29,0,1,1
840,27,324,SHARON,1,33.482,-82.763,11,29,0,1,1
840,27,325,CURRY HILL,1,33.880,-82.554,11,29,0,1,1
840,27,326,GOOD HOPE,1,33.680,-83.704,11,29,0,1,1
840,27,327,SUNNY SIDE,1,33.382,-84.284,11,29,0,1,1
840,27,328,KITE LAKE,1,33.536,-84.459,11,29,0,1,1
840,27,329,YATES CROSSROADS,1,33.404,-85.254,11,29,0,1,1
840,27,330,STONEY POINT,0,33.651,-85.220,11,29,0,1,1
840,27,331,CANDLER,1,34.173,-83.838,11,29,0,1,1
840,27,332,ROCK BRANCH,1,34.198,-82.756,11,29,0,1,1
840,27,333,HEBRON,1,34.393,-83.103,11,29,0,1,1
840,27,334,WOODSTOCK,1,34.092,-84.615,11,29,0,1,1
840,27,335,PLEASANT HILL,1,34.906,-84.512,23,28,0,1,1
840,27,336,AMOS MILL,1,34.612,-85.498,13,28,0,1,1
840,27,337,DAVIS CROSSROADS,1,34.722,-85.424,13,28,0,1,1
840,27,430,STONEY POINT 2,1,33.651,-85.220,11,29,0,1,1
840,27,900,PIEDMONT NWR,1,33.095,-83.709,11,29,0,1,3
840,33,1,NAPLES,1,48.582,-116.397,64,10,0,1,1
840,33,2,MIVODEN,1,47.783,-116.667,64,10,0,1,1
840,33,3,AVERY,1,47.251,-115.811,64,10,0,1,1
840,33,4,GIFFORD,1,46.453,-116.556,65,9,0,1,1
840,33,5,NEZPERCE,1,46.076,-115.412,64,10,0,1,1
840,33,6,LOLO PASS,1,46.640,-114.542,64,10,0,1,1
840,33,7,GRANGEVILLE,1,45.881,-116.112,64,10,0,1,1
840,33,8,GOLDEN,1,45.812,-115.681,64,10,0,1,1
840,33,9,DEEP CREEK,0,45.700,-114.633,64,10,0,1,1
840,33,10,BAKER,1,45.034,-113.562,65,9,0,1,1
840,33,11,CASCADE,0,44.581,-116.041,65,10,0,1,1
840,33,12,CAPE HORN,1,44.457,-115.098,64,10,0,1,1
840,33,13,CHALLIS,1,44.613,-114.174,65,10,0,1,1
840,33,14,LEADORE,1,44.722,-113.520,65,9,0,1,1
840,33,15,DUBOIS,1,44.238,-112.256,89,9,0,1,1
840,33,16,SQUIRREL,1,44.027,-111.259,65,9,0,1,1
840,33,17,BLACKS CREEK,1,43.455,-116.096,89,9,0,1,1
840,33,18,CENTERVILLE,1,43.726,-115.951,64,10,0,1,1
840,33,19,ALTURAS,0,43.898,-114.907,64,10,0,1,1
840,33,20,CRATERS,1,43.462,-113.563,89,9,0,1,1
840,33,21,SPRINGFIELD,1,43.110,-112.732,89,9,0,1,1
840,33,22,RIRIE,1,43.534,-111.701,89,9,0,1,1
840,33,23,TRIANGLE,1,42.813,-116.639,89,9,0,1,1
840,33,24,GLENNS FERRY,0,42.909,-115.185,89,9,0,1,1
840,33,25,MAGIC MTN,1,42.331,-114.279,88,9,0,1,1
840,33,26,ACEQUIA,1,42.677,-113.589,89,9,0,1,1
840,33,27,POCATELLO,1,42.855,-112.519,88,9,0,1,1
840,33,28,HENRY,0,42.931,-111.552,88,9,0,1,1
840,33,29,COOLIN,1,48.480,-116.849,64,10,0,1,1
840,33,30,Baldy Mountain,1,45.816,-115.473,64,10,0,1,1
840,33,109,NEZPERCE NF,0,45.826,-115.436,64,10,0,1,1
840,33,111,CABARTON,1,44.414,-116.032,65,10,0,1,1
840,33,119,SAWTOOTH CTY,0,43.911,-114.876,64,10,0,1,1
840,33,124,PASADENA VAL,1,42.954,-115.212,89,9,0,1,1
840,33,128,BLACKFT RES,1,42.961,-111.719,89,9,0,1,1
840,33,202,MARBLE CREEK,1,47.250,-116.023,64,10,0,1,1
840,33,204,JOEL,1,46.447,-116.839,65,9,0,1,1
840,33,205,PIERCE,1,46.472,-115.797,64,10,0,1,1
840,33,207,SALMON RIVER,1,45.390,-116.034,64,10,0,1,1
840,33,208,BURGDORF,1,45.342,-115.948,64,10,0,1,1
840,33,209,COBALT,1,45.078,-114.012,64,10,0,1,1
840,33,211,CRANE CREEK,1,44.196,-116.509,89,10,0,1,1
840,33,212,YELLOW PINE,1,44.960,-115.493,64,10,0,1,1
840,33,213,SUNBEAM,1,44.271,-114.734,64,10,0,1,1
840,33,214,IRON SPRINGS,1,44.233,-113.370,65,9,0,1,1
840,33,217,SILVER CITY,1,43.158,-116.509,89,9,0,1,1
840,33,218,FEATHERVILLE,1,43.414,-115.361,64,10,0,1,1
840,33,219,PICABO,1,43.401,-114.252,89,9,0,1,1
840,33,220,CAREY,1,43.339,-113.874,89,9,0,1,1
840,33,221,MUD LAKE,1,43.812,-112.396,89,9,0,1,1
840,33,222,BATES,1,43.825,-111.201,65,9,0,1,1
840,33,223,DOUGAL RES,1,42.644,-116.994,89,9,0,1,1
840,33,224,HOT SPRING,1,42.792,-115.718,89,9,0,1,1
840,33,225,CEDAR HILL,1,42.432,-114.089,89,9,0,1,1
840,33,226,ALMO,1,42.210,-113.840,88,9,0,1,1
840,33,227,DANIELS RES,1,42.499,-112.392,88,9,0,1,1
840,33,228,PRESTON,1,42.002,-111.954,88,9,0,1,1
840,33,319,SAWTOOTH CITY 2,1,43.911,-114.876,64,10,0,1,1
840,33,901,TWIN BUTTES,1,43.522,-112.650,89,9,0,1,3
840,33,902,LOST RIVER,1,43.549,-113.009,89,9,0,1,3
840,33,903,KYLE CANYON,1,43.743,-112.842,89,9,0,1,3
840,33,904,CIRCULAR BU,1,43.560,-112.872,89,9,0,1,3
840,33,905,TRACTOR FLAT,1,43.549,-112.637,89,9,0,1,3
840,33,906,N FORK CDA R,1,47.884,-116.132,64,10,0,1,3
840,33,907,ROCHAT DIVDE,1,47.547,-116.331,64,10,0,1,3
840,34,1,GUILFORD,1,42.210,-90.060,17,23,0,1,1
840,34,2,MILL CREEK,1,42.159,-89.332,32,22,0,1,1
840,34,3,HOLCOMB,1,42.071,-89.076,32,22,0,1,1
840,34,4,CHERRY VAL,0,42.181,-88.979,16,23,0,1,1
840,34,5,BARRINGTON,0,42.154,-88.175,16,22,0,1,1
840,34,6,ITASCA,1,42.016,-87.909,16,22,0,1,1
840,34,7,ATKINSON,1,41.397,-90.030,32,22,0,1,1
840,34,8,GENESEO,1,41.485,-90.217,32,22,0,1,1
840,34,9,PUTNAM,1,41.185,-89.457,32,22,0,1,1
840,34,10,SHEFFIELD,1,41.350,-89.770,32,22,0,1,1
840,34,11,BUDA,1,41.336,-89.709,32,22,0,1,1
840,34,12,COMPTON,1,41.650,-89.018,31,22,0,1,1
840,34,13,STREATOR,1,41.083,-88.833,31,22,0,1,1
840,34,14,WAYNE,1,41.934,-88.188,31,22,0,1,1
840,34,15,ESSEX,1,41.166,-88.185,31,22,0,1,1
840,34,16,NEWARK,1,41.531,-88.574,31,22,0,1,1
840,34,17,SHERBURNVILL,1,41.219,-87.582,16,22,0,1,1
840,34,18,NEW LENOX,1,41.469,-87.965,16,22,0,1,1
840,34,19,GULFPORT,1,40.804,-91.057,32,22,0,1,1
840,34,20,STILLWELL,1,40.214,-91.183,31,22,0,1,1
840,34,21,CHANDLERVILL,1,40.081,-90.001,31,22,0,1,1
840,34,22,TERRE HAUTE,1,40.651,-90.981,32,22,0,1,1
840,34,23,WILLIAMSFLD,1,40.917,-90.033,32,22,0,1,1
840,34,24,CAMERON,1,40.860,-90.509,32,22,0,1,1
840,34,25,BARTONVILLE,1,40.600,-89.666,31,22,0,1,1
840,34,26,MONICA,1,40.931,-89.794,32,22,0,1,1
840,34,27,DEER CREEK,1,40.605,-89.318,31,22,0,1,1
840,34,28,MACKINAW,1,40.497,-89.424,31,22,0,1,1
840,34,29,MINONK,1,40.928,-88.951,31,22,0,1,1
840,34,30,MONTICELLO,1,40.079,-88.558,31,22,0,1,1
840,34,31,FAIRBURY,1,40.714,-88.564,31,22,0,1,1
840,34,32,PONTIAC,1,40.899,-88.675,31,22,0,1,1
840,34,33,DAILEY,1,40.251,-87.968,31,22,0,1,1
840,34,34,MILFORD,1,40.646,-87.725,31,22,0,1,1
840,34,35,MELROSE,0,39.920,-91.296,31,22,0,1,1
840,34,36,BLUFF SPGS,1,39.990,-90.345,31,22,0,1,1
840,34,37,ATHENSVILLE,1,39.419,-90.166,31,22,0,1,1
840,34,38,CONCORD,1,39.800,-90.411,31,22,0,1,1
840,34,39,BELLEVIEW,1,39.361,-90.840,31,22,0,1,1
840,34,40,PAWNEE,1,39.575,-89.516,31,22,0,1,1
840,34,41,CLARKSDALE,1,39.480,-89.269,31,22,0,1,1
840,34,42,ROSAMOND,1,39.400,-89.205,31,22,0,1,1
840,34,43,HUMPHREY,1,39.554,-89.452,31,22,0,1,1
840,34,44,FAIRLAND,1,39.895,-88.104,31,22,0,1,1
840,34,45,JANESVILLE,1,39.367,-88.267,31,22,0,1,1
840,34,46,BRADBURY,1,39.315,-88.195,31,22,0,1,1
840,34,47,HUMBOLDT,1,39.615,-88.387,31,22,0,1,1
840,34,48,MARTINSVILLE,1,39.319,-87.778,31,22,0,1,1
840,34,49,COLUMBIA,1,38.385,-90.259,31,22,0,1,1
840,34,50,MASCOUTAH LK,1,38.526,-89.819,31,22,0,1,1
840,34,51,JAMESTOWN,1,38.698,-89.536,31,22,0,1,1
840,34,52,ST MORGAN,1,38.670,-89.660,31,22,0,1,1
840,34,53,BEAUCOUP,1,38.351,-89.294,31,22,0,1,1
840,34,54,BRNT PRAIRIE,1,38.248,-88.234,31,24,0,1,1
840,34,55,MT VERNON,1,38.440,-88.970,31,22,0,1,1
840,34,56,OLNEY,1,38.707,-88.168,31,22,0,1,1
840,34,57,FLORA,1,38.677,-88.429,31,22,0,1,1
840,34,58,BIRDS,1,38.835,-87.745,31,24,0,1,1
840,34,59,PULASKI,1,37.233,-89.235,14,24,0,1,1
840,34,60,BREMEN,1,37.971,-89.748,14,24,0,1,1
840,34,61,BELKNAP,1,37.320,-88.944,14,24,0,1,1
840,34,62,DELWOOD,1,37.600,-88.506,14,24,0,1,1
840,34,63,BEAVERDAM LK,1,37.073,-88.519,14,24,0,1,1
840,34,64,ROBINSON,1,39.005,-87.777,31,22,0,1,1
840,34,65,SHANNON,1,42.140,-89.765,17,22,0,1,1
840,34,66,CALEDONIA,1,42.399,-88.915,16,22,0,1,1
840,34,67,SHERRARD,1,41.341,-90.531,32,22,0,1,1
840,34,68,TROY GROVE,1,41.484,-89.083,32,22,0,1,1
840,34,69,SENECA,1,41.311,-88.590,31,22,0,1,1
840,34,70,CAMP POINT,1,40.057,-91.127,31,22,0,1,1
840,34,71,DUNCAN MILLS,1,40.305,-90.136,31,22,0,1,1
840,34,72,GREENVIEW,1,40.084,-89.825,31,22,0,1,1
840,34,73,LE ROY,1,40.282,-88.746,31,22,0,1,1
840,34,74,ELDRED,1,39.289,-90.551,31,22,0,1,1
840,34,75,NILWOOD,1,39.399,-89.831,31,22,0,1,1
840,34,76,YALE,1,39.106,-88.025,31,22,0,1,1
840,34,77,YORK,1,39.147,-87.669,31,24,0,1,1
840,34,78,DARMSTADT,1,38.320,-89.704,31,22,0,1,1
840,34,79,BROWNVILLE,1,38.039,-88.208,31,24,0,1,1
840,34,80,SANDUSKY,1,37.203,-89.274,14,24,0,1,1
840,34,81,CAVE IN ROCK,1,37.467,-88.164,14,24,0,1,1
840,34,82,VILLAGE OF LAKEWOOD,1,42.221,-88.399,16,22,0,1,1
840,34,104,CHERRY VAL 2,1,42.174,-88.945,16,23,0,1,1
840,34,135,PAYSON,1,39.926,-91.313,31,22,0,1,1
840,34,301,LAKE GALENA,1,42.397,-90.281,17,23,0,1,1
840,34,302,LAKE SUMMERSET,1,42.462,-89.382,17,22,0,1,1
840,34,303,UNION,1,42.219,-88.562,16,22,0,1,1
840,34,304,KEITHSBURG,1,41.085,-90.901,32,22,0,1,1
840,34,305,STERLING,1,41.831,-89.669,32,22,0,1,1
840,34,306,YORKVILLE,1,41.597,-88.436,31,22,0,1,1
840,34,307,CLAYTON,1,40.018,-90.932,31,22,0,1,1
840,34,308,WAYNESVILLE,1,40.264,-89.130,31,22,0,1,1
840,34,309,GRIDLEY,1,40.754,-88.872,31,22,0,1,1
840,34,310,GRAPE CREEK,1,40.081,-87.540,31,22,0,1,1
840,34,311,EUBANKS,1,39.961,-91.301,31,22,0,1,1
840,34,312,CONCORD WEST,1,39.817,-90.406,31,22,0,1,1
840,34,313,HARRISTOWN,1,39.853,-89.085,31,22,0,1,1
840,34,314,ALLERTON PARK,1,39.953,-88.669,31,22,0,1,1
840,34,315,MARSHALL,1,39.401,-87.706,31,22,0,1,1
840,34,316,DUDLEYVILLE,1,38.843,-89.390,31,22,0,1,1
840,34,317,KELL,1,38.498,-88.880,31,22,0,1,1
840,34,318,ROYALTON,1,37.862,-89.078,31,24,0,1,1
840,34,319,KARNAK,1,37.295,-88.947,14,24,0,1,1
840,34,900,ATHENS,1,39.955,-89.751,31,22,0,1,3
840,35,1,GARY,0,41.652,-87.449,16,22,0,1,1
840,35,2,HEBRON,1,41.330,-87.200,16,22,0,1,1
840,35,3,SOUTH BEND,0,41.727,-86.217,16,23,0,1,1
840,35,4,KNOX,1,41.274,-86.621,16,23,0,1,1
840,35,5,KEWANNA,1,41.025,-86.281,16,23,0,1,1
840,35,6,MIDDLEBURY,1,41.726,-85.676,16,23,0,1,1
840,35,7,COLUMBIA CTY,1,41.019,-85.490,31,23,0,1,1
840,35,8,PACKERTOWN,0,41.102,-85.835,16,23,0,1,1
840,35,9,ELLIS,1,41.602,-84.939,16,23,0,1,1
840,35,10,FOWLER,1,40.679,-87.363,31,22,0,1,1
840,35,11,W LAFAYETTE,1,40.408,-87.036,31,22,0,1,1
840,35,12,MONTICELLO,1,40.708,-86.814,31,22,0,1,1
840,35,13,GALVESTON,1,40.584,-86.184,31,22,0,1,1
840,35,14,THORNTOWN,1,40.150,-86.696,31,22,0,1,1
840,35,15,TIPTON,0,40.218,-86.056,31,22,0,1,1
840,35,16,MIDDLETOWN,1,40.033,-85.545,31,22,0,1,1
840,35,17,MUNCIE,0,40.135,-85.357,31,22,0,1,1
840,35,18,SWAYZEE,1,40.508,-85.845,31,22,0,1,1
840,35,19,WABASH,1,40.853,-85.904,31,22,0,1,1
840,35,20,BERNE,1,40.703,-84.853,31,22,0,1,1
840,35,21,PIMENTO,1,39.332,-87.374,15,24,0,1,1
840,35,22,BRAZIL,1,39.533,-87.144,15,24,0,1,1
840,35,23,BELMONT,1,39.079,-86.343,14,24,0,1,1
840,35,24,FRIENDSWOOD,1,39.640,-86.288,31,22,0,1,1
840,35,25,JAMESTOWN,1,39.908,-86.577,31,22,0,1,1
840,35,26,SPENCER,1,39.264,-86.703,15,24,0,1,1
840,35,27,AZALIA,1,39.084,-85.929,15,24,0,1,1
840,35,28,SEXTON,1,39.685,-85.469,31,22,0,1,1
840,35,29,MILROY,1,39.468,-85.442,31,22,0,1,1
840,35,30,SHELBYVILLE,1,39.562,-85.776,31,22,0,1,1
840,35,31,BROOKVILLE,1,39.494,-84.976,31,22,0,1,1
840,35,32,WASHINGTON,1,38.684,-87.129,15,24,0,1,1
840,35,33,CUMBACK,1,38.576,-87.185,15,24,0,1,1
840,35,34,MILLERSBURG,1,38.098,-87.392,15,24,0,1,1
840,35,35,INDIAN SPGS,1,38.774,-86.765,14,24,0,1,1
840,35,36,CELESTINE,1,38.415,-86.820,14,24,0,1,1
840,35,37,CLEAR SPRING,1,38.919,-86.193,14,24,0,1,1
840,35,38,NEW PHILA,1,38.663,-85.941,14,24,0,1,1
840,35,39,CORYDON,1,38.267,-86.146,14,24,0,1,1
840,35,40,VEVAY,1,38.780,-85.094,15,24,0,1,1
840,35,41,SCOTTSBURG,1,38.635,-85.747,15,24,0,1,1
840,35,42,EVANSVILLE,1,37.991,-87.441,15,24,0,1,1
840,35,101,PORTAGE,0,41.536,-87.197,16,22,0,1,1
840,35,103,LAKEVILLE,1,41.637,-86.366,16,23,0,1,1
840,35,108,PACKERTOWN 2,1,41.101,-85.835,16,23,0,1,1
840,35,115,KOKOMO,1,40.218,-86.056,31,22,0,1,1
840,35,117,ANDERSON,1,40.135,-85.357,31,22,0,1,1
840,35,201,PORTAGE 2,1,41.536,-87.197,16,22,0,1,1
840,35,301,CROWN POINT,1,41.391,-87.369,16,22,0,1,1
840,35,302,LAPORTE,1,41.637,-86.851,16,23,0,1,1
840,35,303,LAGRANGE,1,41.751,-85.477,16,23,0,1,1
840,35,304,CUBA,1,41.080,-84.924,31,22,0,1,1
840,35,305,RENSSELAER,1,40.970,-87.075,31,22,0,1,1
840,35,306,FRANKFORT,1,40.199,-86.450,31,22,0,1,1
840,35,307,MONTPELIER,1,40.407,-85.239,31,22,0,1,1
840,35,308,DECATUR,1,40.810,-84.956,31,22,0,1,1
840,35,309,WALLACE,1,39.982,-87.356,31,22,0,1,1
840,35,310,PLAINFIELD,0,39.946,-86.379,31,22,0,1,1
840,35,311,NEW CASTLE,1,39.946,-85.091,31,22,0,1,1
840,35,312,WITTS STATION,1,39.683,-84.852,31,22,0,1,1
840,35,313,NEWBERRY,1,39.125,-87.054,15,24,0,1,1
840,35,314,GEORGIA,1,38.767,-86.548,14,24,0,1,1
840,35,315,CROSS PLAINS,1,38.951,-85.162,15,24,0,1,1
840,35,316,CYPRSS,1,37.914,-87.630,15,24,0,1,1
840,35,410,MAPLEWOOD,1,39.944,-86.487,31,22,0,1,1
840,35,900,HOOSIER,1,39.015,-86.401,14,24,12,1,3
840,35,901,INDIANA DUNE,1,41.705,-86.933,16,23,0,1,3
840,35,903,KANKAKEE SANDS,1,41.047,-87.451,16,22,0,1,3
840,36,1,MT HAMILL,1,40.770,-91.680,32,22,0,1,1
840,36,2,EXLINE,1,40.653,-92.886,32,22,0,1,1
840,36,3,MELROSE,1,40.889,-93.172,32,22,0,1,1
840,36,4,BEDFORD,1,40.571,-94.643,32,22,0,1,1
840,36,5,COLLEGE SPGS,0,40.620,-95.121,32,22,0,1,1
840,36,6,BRYANT,1,41.975,-90.296,32,22,0,1,1
840,36,7,WEST LIBERTY,1,41.569,-91.270,32,22,0,1,1
840,36,8,CEDAR VALLEY,0,41.729,-91.251,32,22,0,1,1
840,36,9,BROOKLYN,1,41.819,-92.357,32,22,0,1,1
840,36,10,WILLIAMSBURG,1,41.674,-92.260,32,22,0,1,1
840,36,11,RED ROCK,1,41.402,-93.104,32,22,0,1,1
840,36,12,DESMOINES,0,41.680,-93.601,32,22,0,1,1
840,36,13,PANTHER,1,41.659,-94.144,40,11,0,1,1
840,36,14,WASHINGTON,1,41.718,-94.086,40,11,0,1,1
840,36,15,NEOLA,1,41.448,-95.727,32,22,0,1,1
840,36,16,WALES,1,41.131,-95.347,32,22,0,1,1
840,36,17,MAQUOKETA,1,42.044,-90.607,17,22,0,1,1
840,36,18,ALICE,0,42.210,-91.695,32,22,0,1,1
840,36,19,PRAIRIEBURG,1,42.199,-91.417,32,22,0,1,1
840,36,20,HUDSON,1,42.428,-92.476,32,22,0,1,1
840,36,21,DINSDALE,1,42.239,-92.534,32,22,0,1,1
840,36,22,KANAWHA,1,42.966,-93.852,40,11,0,1,1
840,36,23,ZEARING,0,42.152,-93.329,40,11,0,1,1
840,36,24,SCRANTON,1,42.035,-94.571,40,11,0,1,1
840,36,25,CLARE,1,42.602,-94.295,40,11,0,1,1
840,36,26,PIERSON,1,42.533,-95.879,32,22,0,1,1
840,36,27,WASHTA,1,42.648,-95.721,32,22,0,1,1
840,36,28,SIOUX CITY,1,42.490,-96.374,32,22,0,1,1
840,36,29,FESTINA,1,43.086,-91.877,17,23,0,1,1
840,36,30,DAVIS CORNER,1,43.349,-92.259,32,22,0,1,1
840,36,31,GARNER,0,43.068,-93.577,40,11,0,1,1
840,36,32,TITONKA,1,43.239,-94.010,40,11,0,1,1
840,36,33,GAZA,1,43.041,-95.584,32,22,0,1,1
840,36,34,ROCK VALLEY,1,43.257,-96.276,32,22,0,1,1
840,36,105,COLLEGE SPGS 2,1,40.624,-95.126,32,22,0,1,1
840,36,108,TIPTON,1,41.729,-91.251,32,22,0,1,1
840,36,118,LAFAYETTE,1,42.212,-91.696,32,22,0,1,1
840,36,123,MCCALLSBURG,1,42.166,-93.347,40,11,0,1,1
840,36,131,BURCHINAL,1,43.068,-93.577,40,11,0,1,1
840,38,1,MELROSE,1,37.032,-94.995,33,22,0,1,1
840,38,2,GALESBURG,1,37.515,-95.325,33,22,0,1,1
840,38,3,HUMBOLDT,1,37.849,-95.501,33,22,0,1,1
840,38,4,LAPLAND,1,37.985,-96.394,35,22,0,1,1
840,38,5,THRALL,0,38.057,-96.286,35,22,0,1,1
840,38,6,WELLINGTON,1,37.319,-97.349,35,19,0,1,1
840,38,7,DALTON,1,37.232,-97.258,35,19,0,1,1
840,38,8,ST JOHN,1,37.927,-98.830,34,19,0,1,1
840,38,9,COATS,1,37.514,-98.830,34,19,0,1,1
840,38,10,COLDWATER,1,37.165,-99.272,34,19,0,1,1
840,38,11,ASHLAND,1,37.133,-99.741,34,19,0,1,1
840,38,12,LAKIN,1,37.959,-101.432,36,18,0,1,1
840,38,13,OLATHE,1,38.855,-94.871,33,22,0,1,1
840,38,14,DOVER,1,38.972,-95.910,33,22,0,1,1
840,38,15,BARCLAY,1,38.535,-95.858,33,22,0,1,1
840,38,16,WREFORD,1,38.994,-96.900,35,22,0,1,1
840,38,17,ELLINOR,1,38.362,-96.561,35,22,0,1,1
840,38,18,CHAPMAN,0,38.945,-97.298,35,19,0,1,1
840,38,19,BUCKEYE,1,39.061,-97.111,35,19,0,1,1
840,38,20,ALBERT,1,38.464,-98.978,34,19,0,1,1
840,38,21,KANOPOLIS,1,38.552,-98.035,34,19,0,1,1
840,38,22,GRAY,1,38.204,-99.662,34,19,0,1,1
840,38,23,HAYS,1,38.842,-99.466,34,19,0,1,1
840,38,24,WALLACE,1,38.728,-101.651,36,18,0,1,1
840,38,25,LEOVILLE,1,39.583,-100.330,34,19,0,1,1
840,38,26,GRANTVILLE,1,39.081,-95.567,32,22,0,1,1
840,38,27,ROCK CREEK,1,39.252,-95.535,32,22,0,1,1
840,38,28,HANOVER,1,39.900,-96.871,32,19,0,1,1
840,38,29,SENECA,1,39.769,-96.027,32,22,0,1,1
840,38,30,HOLLENBERG,1,39.937,-97.012,34,19,0,1,1
840,38,31,MINNEAPOLIS,1,39.190,-97.612,34,19,0,1,1
840,38,32,COVERT,1,39.345,-98.751,34,19,0,1,1
840,38,33,JEWELL,0,39.726,-98.101,34,19,0,1,1
840,38,34,PHILLIPSBURG,1,39.770,-99.254,34,19,0,1,1
840,38,35,LOGAN,1,39.727,-99.646,34,19,0,1,1
840,38,36,GOVE,1,38.901,-100.244,34,19,0,1,1
840,38,37,MISSLER,1,37.314,-100.435,34,19,0,1,1
840,38,38,RULETON,1,39.177,-101.969,36,18,0,1,1
840,38,105,LONGTON,1,37.300,-96.101,33,22,0,1,1
840,38,118,SOLOMON,1,38.915,-97.369,33,19,0,1,1
840,38,133,JEWELL 2,1,39.726,-98.101,34,19,0,1,1
840,38,301,PITTSBURG,1,37.310,-94.742,33,22,0,1,1
840,38,302,Morehead,1,37.369,-95.449,33,22,0,1,1
840,38,303,Reece,1,37.796,-96.435,35,22,0,1,1
840,38,304,Berwet,1,37.796,-97.463,35,19,0,1,1
840,38,305,Hopewell,1,37.855,-98.876,34,19,0,1,1
840,38,306,Hodges,1,37.826,-99.386,34,19,0,1,1
840,38,307,Plymell,1,37.830,-100.871,36,18,0,1,1
840,38,308,Ulysses,1,37.388,-101.249,36,18,0,1,1
840,38,309,Trading Post,1,38.215,-94.613,33,22,0,1,1
840,38,310,Le Loup,1,38.681,-95.121,33,22,0,1,1
840,38,311,Lincolnville,1,38.522,-96.912,35,22,0,1,1
840,38,312,Goessel,1,38.204,-97.208,35,19,0,1,1
840,38,313,Susank,1,38.681,-98.775,34,19,0,1,1
840,38,314,Ash Valley,1,38.319,-99.235,34,19,0,1,1
840,38,315,Grigston,1,38.468,-100.723,36,18,0,1,1
840,38,316,Leoti,1,38.191,-101.359,36,18,0,1,1
840,38,317,Severance,1,39.784,-95.227,32,22,0,1,1
840,38,318,Olsburg,1,39.653,-96.530,35,22,0,1,1
840,38,319,Jamestown,1,39.567,-97.819,34,19,0,1,1
840,38,320,Beloit,0,39.567,-98.169,34,19,0,1,1
840,38,321,Damar,1,39.336,-99.270,34,19,0,1,1
840,38,322,Rexford,1,39.495,-100.646,34,19,0,1,1
840,38,323,Winona,1,39.120,-101.728,36,18,0,1,1
840,38,420,Beloit 2,1,39.567,-98.154,34,19,0,1,1
840,39,1,CUMBERLND GP,1,36.608,-83.702,21,28,0,1,1
840,39,2,LOVELACEVILE,1,36.907,-88.862,4,27,0,1,1
840,39,3,SHILOH,1,36.690,-88.181,4,27,0,1,1
840,39,4,CANTON,1,36.793,-87.961,14,24,0,1,1
840,39,5,KEYSBURG,1,36.664,-87.009,14,24,0,1,1
840,39,6,CEDAR GROVE,1,36.991,-86.631,14,24,0,1,1
840,39,7,IRON BRIDGE,0,36.934,-86.204,14,24,0,1,1
840,39,8,SULPHUR LICK,1,36.819,-85.717,14,24,0,1,1
840,39,9,HEGIRA,1,36.701,-85.270,14,24,0,1,1
840,39,10,SUNNYBROOK,1,36.617,-84.993,14,28,0,1,1
840,39,11,MONTICELLO,1,36.821,-84.834,21,28,0,1,1
840,39,12,BARDWELL,0,36.846,-89.059,4,26,0,1,1
840,39,13,MCVEIGH,0,37.446,-82.202,21,28,0,1,1
840,39,14,WARFIELD,0,37.809,-82.733,21,28,0,1,1
840,39,15,PIPPA PASSES,1,37.354,-82.857,21,28,0,1,1
840,39,16,MCKEE,1,37.431,-83.993,21,28,0,1,1
840,39,17,PINE RIDGE,0,37.761,-83.610,21,28,0,1,1
840,39,18,BEATTYVILLE,0,37.593,-83.731,21,28,0,1,1
840,39,19,LEVEE,0,37.993,-83.941,14,24,0,1,1
840,39,20,MILLION,0,37.882,-84.559,15,24,0,1,1
840,39,21,KINGS MTN,1,37.390,-84.661,14,24,0,1,1
840,39,22,HUSTONVILLE,1,37.471,-84.811,14,24,0,1,1
840,39,23,MCBRAYER,1,37.985,-84.814,15,24,0,1,1
840,39,24,HODGENVILLE,0,37.583,-85.738,14,24,0,1,1
840,39,25,MERRIMAC,1,37.413,-85.128,14,24,0,1,1
840,39,26,JOHNSONVILLE,1,37.935,-85.096,15,24,0,1,1
840,39,27,RADCLIFF,0,37.790,-85.913,15,24,0,1,1
840,39,28,DEMUNBRUNS,1,37.257,-86.139,14,24,0,1,1
840,39,29,GATEWOOD,1,37.820,-86.896,14,24,0,1,1
840,39,30,HUDSON,1,37.596,-86.296,14,24,0,1,1
840,39,31,EASTVIEW,1,37.618,-86.018,14,24,0,1,1
840,39,32,DRAKESBORO,0,37.245,-87.082,14,24,0,1,1
840,39,33,BOXVILLE,0,37.593,-87.678,14,24,0,1,1
840,39,34,DANIEL BOONE,0,37.187,-87.507,14,24,0,1,1
840,39,35,DIXIE,1,37.716,-87.695,14,24,0,1,1
840,39,36,JOY,1,37.330,-88.326,14,24,0,1,1
840,39,37,SHELBYVILLE,0,38.277,-85.205,15,24,0,1,1
840,39,38,GOSHEN,1,38.411,-85.559,14,24,0,1,1
840,39,39,GLENCOE,1,38.721,-84.824,15,24,0,1,1
840,39,40,BUENA VISTA,1,38.434,-84.163,15,24,0,1,1
840,39,41,PORTER,1,38.379,-84.573,15,24,0,1,1
840,39,42,SEWELL SHOP,1,38.030,-84.027,15,24,0,1,1
840,39,43,PLUM,1,38.166,-84.068,15,24,0,1,1
840,39,44,EAST UNION,1,38.205,-83.930,15,24,0,1,1
840,39,45,GESLING,0,38.419,-83.092,22,28,0,1,1
840,39,46,KEHOE,0,38.467,-83.051,22,28,0,1,1
840,39,107,BAYS FORK,1,36.926,-86.337,14,24,0,1,1
840,39,112,BARDWELL 2,1,36.862,-89.041,4,26,0,1,1
840,39,113,Phelps,1,37.446,-82.202,21,28,0,1,1
840,39,114,STAFFORDSVIL,1,37.732,-82.844,21,28,0,1,1
840,39,117,CAMPTON,1,37.739,-83.563,21,28,0,1,1
840,39,118,Beattyville 2,1,37.633,-83.800,21,28,0,1,1
840,39,119,Levee 2,1,37.993,-83.941,14,24,0,1,1
840,39,120,Million 2,1,37.245,-87.332,15,24,0,1,1
840,39,124,Hodgenville 2,1,37.584,-85.737,14,24,0,1,1
840,39,127,LEBANON JUNCTION,1,37.825,-85.712,15,24,0,1,1
840,39,132,Riverqueen,1,37.245,-87.332,14,24,0,1,1
840,39,133,DIXON,1,37.593,-87.677,14,24,0,1,1
840,39,134,APEX,1,37.107,-87.353,14,24,0,1,1
840,39,137,PLEASUREVILL,1,38.270,-85.204,15,24,0,1,1
840,39,145,CARTER,1,38.424,-83.092,22,28,0,1,1
840,39,146,KEHOE 2,1,38.439,-82.996,22,28,0,1,1
840,39,214,PAINTSVILLE,0,37.809,-82.733,21,28,0,1,1
840,39,900,MAMMOTH CAVE,1,37.217,-86.049,14,24,0,1,3
840,39,901,Mammoth Cave North,0,37.256,-86.062,14,24,0,1,3
840,42,1,CARLISLE,0,29.687,-89.963,5,26,0,1,1
840,42,2,JUNIOR,0,29.383,-89.602,6,37,0,1,1
840,42,3,FREETOWN,1,29.903,-90.921,5,26,0,1,1
840,42,4,LAFITTE,0,29.692,-90.097,5,37,0,1,1
840,42,5,MORGAN CITY,0,29.908,-91.217,5,26,0,1,1
840,42,6,GRAN CHENIER,0,29.738,-92.811,6,37,0,1,1
840,42,7,CREOLE,0,29.827,-93.135,6,37,0,1,1
840,42,8,LACOMBE,0,30.280,-89.898,3,27,0,1,1
840,42,9,ROSELAND,1,30.702,-90.511,4,26,0,1,1
840,42,10,BICKHAM,1,30.880,-90.249,4,27,0,1,1
840,42,11,KEYSTONE,1,30.064,-91.821,6,26,0,1,1
840,42,12,PLETTENBERG,1,30.869,-91.511,5,27,0,1,1
840,42,13,MAMOU,0,30.652,-92.432,6,37,0,1,1
840,42,14,EASTON,0,30.761,-92.461,3,25,0,1,1
840,42,15,HACKBERRY,1,30.008,-93.343,6,37,0,1,1
840,42,16,DE RIDDER,1,30.832,-93.318,3,25,0,1,1
840,42,17,SHAW,1,31.189,-91.672,5,26,0,1,1
840,42,18,MAYFLOWER,1,31.979,-91.444,5,26,0,1,1
840,42,19,DERRY,0,31.564,-92.963,4,25,0,1,1
840,42,20,FISHVILLE,1,31.465,-92.295,4,25,0,1,1
840,42,21,CYPRESS,0,31.589,-93.041,4,25,0,1,1
840,42,22,FORT POLK,0,31.014,-93.172,4,25,0,1,1
840,42,23,MER ROUGE,0,32.762,-91.730,5,25,0,1,1
840,42,24,RAYVILLE,0,32.394,-91.654,5,26,0,1,1
840,42,25,CHATHAM,0,32.256,-92.312,4,25,0,1,1
840,42,26,CLAY,1,32.460,-92.622,4,25,0,1,1
840,42,27,LONGSTREET,1,32.074,-93.974,4,25,0,1,1
840,42,28,FILLMORE,0,32.563,-93.515,4,25,0,1,1
840,42,29,LAROSE,0,29.548,-90.587,5,26,0,1,1
840,42,30,GLENCOE,1,29.716,-91.877,6,37,0,1,1
840,42,31,ESTHER,1,29.846,-92.233,6,37,0,1,1
840,42,32,GREENSBURG,1,30.857,-90.733,4,27,0,1,1
840,42,33,RAMAH,1,30.399,-91.510,5,26,0,1,1
840,42,34,MAURICE,1,30.081,-92.451,6,37,0,1,1
840,42,36,TROUT,1,31.818,-92.051,4,25,0,1,1
840,42,37,MANY,0,31.669,-93.574,4,25,0,1,1
840,42,38,FLOYD,1,32.486,-91.427,5,26,0,1,1
840,42,39,MARION,0,32.951,-92.281,4,25,0,1,1
840,42,40,CARTERVILLE,0,32.751,-93.549,4,25,0,1,1
840,42,50,GIBSON,1,29.687,-90.991,5,26,0,1,1
840,42,51,BROUSVILLE,1,29.984,-91.957,6,26,0,1,1
840,42,52,KAPLAN,1,29.996,-92.597,6,37,0,1,1
840,42,53,GONZALES,1,30.269,-90.942,5,26,0,1,1
840,42,54,NORWOOD,1,30.978,-91.104,4,27,0,1,1
840,42,55,RICHARD,1,30.422,-92.287,6,37,0,1,1
840,42,56,DE QUINCY,1,30.410,-93.168,3,25,0,1,1
840,42,57,FROGMORE,1,31.737,-91.597,5,26,0,1,1
840,42,58,FLAT CREEK,1,32.000,-92.384,4,25,0,1,1
840,42,59,ZWOLLE,1,31.458,-93.660,4,25,0,1,1
840,42,60,TRANSYLVANIA,1,32.855,-91.262,5,26,0,1,1
840,42,61,MOUNT UNION,1,32.975,-92.565,4,25,0,1,1
840,42,62,WOMACK,1,32.111,-93.254,5,25,0,1,1
840,42,101,BELAIR,1,29.692,-89.967,5,26,0,1,1
840,42,102,GRAND ISLE,1,29.260,-89.963,6,37,0,1,1
840,42,104,KRAEMER,1,29.756,-90.559,5,26,0,1,1
840,42,105,BERWICK,1,29.700,-91.207,5,26,0,1,1
840,42,106,LTL CHENIER,1,29.771,-93.016,6,37,0,1,1
840,42,107,SABINE NWR,0,29.891,-93.402,6,37,0,1,1
840,42,108,SLIDELL,0,30.270,-89.845,3,27,0,1,1
840,42,113,VILLE PLATTE,1,30.652,-92.432,6,37,0,1,1
840,42,114,OAKDALE,0,30.765,-92.428,3,25,0,1,1
840,42,119,Derry 2,1,31.564,-92.963,4,25,0,1,1
840,42,121,NATCHITOCHES,0,31.588,-93.042,4,25,0,1,1
840,42,122,BURR FERRY,1,31.066,-93.496,4,25,0,1,1
840,42,123,Delhi,1,32.552,-91.627,5,26,0,1,1
840,42,124,Rayville 2,1,32.385,-91.651,5,26,0,1,1
840,42,125,CHENIERE,1,32.306,-92.346,4,25,0,1,1
840,42,128,HAUGHTON,1,32.554,-93.483,4,25,0,1,1
840,42,137,FORT JESSUP,1,31.670,-93.573,4,25,0,1,1
840,42,139,LINVILLE,1,32.949,-92.270,4,25,0,1,1
840,42,140,IVAN,0,32.751,-93.549,4,25,0,1,1
840,42,206,LTL Chenier 2,0,29.771,-93.016,6,37,0,1,1
840,42,207,Sabine NWR 2,1,29.891,-93.402,6,37,0,2,1
840,42,208,PEARL RIVER,1,30.270,-89.845,3,27,0,1,1
840,42,214,PINE PRAIRIE,0,30.766,-92.428,3,25,0,1,1
840,42,221,NATCHEZ,1,31.482,-93.147,4,25,0,1,1
840,42,240,IVAN 2,1,32.751,-93.549,4,25,0,1,1
840,42,301,GOODWILL,1,32.586,-93.432,4,25,0,1,1
840,42,302,GRAYSON,1,32.051,-92.126,4,25,0,1,1
840,42,303,CONCORD,1,32.974,-91.518,5,26,0,1,1
840,42,304,EVELYN,1,31.988,-93.443,4,25,0,1,1
840,42,305,HARGIS,0,31.955,-92.814,4,25,0,1,1
840,42,306,ENTERPRISE,1,31.900,-91.911,5,25,0,1,1
840,42,307,VINTON,0,30.162,-93.587,3,37,0,1,1
840,42,308,WOODLAWN,1,30.275,-92.962,6,37,0,1,1
840,42,309,PORT ALLEN,1,30.474,-91.211,5,26,0,1,1
840,42,310,CAMP COVINGTON,0,30.577,-90.054,3,26,0,1,1
840,42,311,FORKED ISLAND,1,29.553,-92.307,6,37,0,1,1
840,42,312,Morgan City,1,29.722,-91.222,5,26,0,1,1
840,42,313,LAUREL GROVE,0,29.818,-90.885,5,26,0,1,1
840,42,314,TURKEY CREEK,0,30.754,-92.429,3,25,0,1,1
840,42,405,HARGIS 2,1,31.955,-92.814,4,25,0,1,1
840,42,407,VINTON 2,1,30.162,-93.587,3,37,0,1,1
840,42,410,Franklinton,1,30.832,-90.146,4,27,0,1,1
840,42,411,Forked Island 2,0,29.553,-92.307,6,37,0,1,1
840,42,414,LAKE COVE,1,30.766,-92.428,3,25,0,1,1
840,42,901,N EVANGELINE,0,30.879,-92.419,3,37,0,1,3
840,42,902,E EVANGELINE,0,30.802,-92.313,5,37,0,1,3
840,42,903,RIVER ROAD,1,30.413,-91.196,5,26,0,1,3
840,42,904,TENSAS NWR,1,32.312,-91.367,5,26,0,1,3
840,42,905,ATCHAFALAYA,1,30.369,-91.635,5,26,0,1,3
840,42,906,BATON ROUGE,1,30.416,-91.180,5,26,0,1,3
124,43,1,RICHARDSON,1,67.182,-135.803,25,6,0,1,1
124,43,2,FT MCPHERSON,1,67.341,-134.870,25,6,0,1,1
124,43,3,MACKENZIE R,1,67.459,-133.762,99,6,0,1,1
124,43,4,INUVIK,1,68.088,-133.493,99,6,0,1,1
124,43,5,GT SLAVE LK,0,62.270,-114.438,25,7,0,1,1
124,43,6,STAGG RIVER,0,62.561,-115.088,25,7,0,1,1
124,43,7,INGRAHAM,1,62.525,-114.181,25,7,0,1,1
124,43,8,F PROVIDENCE,1,61.398,-117.447,29,6,0,1,1
124,43,9,LITL BUFFALO,1,60.048,-112.773,29,6,0,1,1
124,43,10,FT SIMPSON,1,61.445,-121.238,29,6,0,1,1
124,43,11,FORT LIARD,1,60.304,-123.316,68,6,0,1,1
124,43,12,NORMAN WELLS,1,65.293,-126.835,25,6,0,1,1
124,43,13,MAGUSE,0,61.096,-93.984,99,3,0,1,1
124,43,14,BEAR RIVER,1,64.904,-125.658,25,6,0,1,1
124,43,15,EKATI,1,64.544,-110.206,99,3,0,1,1
124,43,16,Antoine Lake,1,61.833,-121.325,29,6,0,1,1
124,43,17,Mackenzie Mile 254,1,62.152,-122.527,25,6,0,1,1
124,43,18,Mackenzie Tributary,1,61.091,-118.719,29,6,0,1,1
124,43,19,Wrigley,1,63.371,-123.566,25,6,0,1,1
124,43,20,Trout River,1,61.145,-119.846,29,6,0,1,1
124,43,21,Enterprise,1,60.558,-116.141,29,6,0,1,1
124,43,22,Caen Lake,1,61.932,-116.496,25,6,0,1,1
124,43,23,Edzo,1,62.484,-116.485,25,6,0,1,1
124,43,24,Hay River,1,60.753,-115.821,25,6,0,1,1
124,43,106,MacKenzie Highway,1,62.538,-114.974,25,7,0,1,1
124,43,108,Junction 1/3,1,61.218,-117.505,29,6,0,1,1
840,44,1,CAPE NEDDICK,1,43.254,-70.644,12,30,0,1,1
840,44,2,WESTBROOK,1,43.689,-70.361,12,14,0,1,1
840,44,3,BIDDEFORD,1,43.499,-70.515,12,14,0,1,1
