countrynum,statenum,statename,Route,routename,latitude,longitude,Year,Aou,family,SpeciesTotal
840,6,ARIZONA,65,TONTO VILL.,34.3566847,-111.1008299,2016,3120,Columbidae,2
840,6,ARIZONA,133,PORTAL,31.9825267,-109.2013399,2016,3120,Columbidae,4
124,11,British Columbia,202,NITNAT,48.87213,-124.81477,2016,3120,Columbidae,8
124,11,British Columbia,226,STELLA LAKE,50.18259,-125.49475,2016,3120,Columbidae,4
124,11,British Columbia,313,DUCK LAKE,49.78313,-124.17869,2016,3120,Columbidae,12
124,11,British Columbia,328,Nawhiti Lake,50.680643,-127.980411,2016,3120,Columbidae,5
124,11,British Columbia,401,SALT SPR. IS,48.74932,-123.54811,2016,3120,Columbidae,2
124,11,British Columbia,402,COWICHAN LK.,48.82305,-124.05783,2016,3120,Columbidae,17
124,11,British Columbia,410,CHILLIWACK LAKE,49.02589,-121.38798,2016,3120,Columbidae,14
124,11,British Columbia,426,QUADRA IS.,50.02276,-125.16041,2016,3120,Columbidae,3
124,11,British Columbia,511,Skookumchuk,49.928775,-122.400526,2016,3120,Columbidae,2
124,11,British Columbia,612,SQUAMISH RIVER,49.68665,-123.17833,2016,3120,Columbidae,5
124,11,British Columbia,613,COOMBS,49.25092,-124.35721,2016,3120,Columbidae,3
840,14,CALIFORNIA,3,NUBIEBER,41.1014068,-121.2571315,2016,3120,Columbidae,8
840,14,CALIFORNIA,5,HONEYDEW,40.2431947,-124.1233439,2016,3120,Columbidae,3
840,14,CALIFORNIA,6,HOLMES,40.4150917,-123.9615249,2016,3120,Columbidae,20
840,14,CALIFORNIA,13,WESTVILLE,39.1239687,-120.7596199,2016,3120,Columbidae,2
840,14,CALIFORNIA,22,BASS LAKE,37.3670857,-119.6302109,2016,3120,Columbidae,6
840,14,CALIFORNIA,78,JOHNSVILLE,39.7846537,-120.6326679,2016,3120,Columbidae,3
840,14,CALIFORNIA,79,COHASSET,39.9935292,-121.704424,2016,3120,Columbidae,12
840,14,CALIFORNIA,106,MESA GRANDE,33.1990869,-116.7862853,2016,3120,Columbidae,1
840,14,CALIFORNIA,108,CARMEL VAL,36.4530827,-121.6956939,2016,3120,Columbidae,6
840,14,CALIFORNIA,129,MT BALDY,34.1748887,-117.6766129,2016,3120,Columbidae,11
840,14,CALIFORNIA,130,GREEN VALLEY,34.2452557,-117.0639579,2016,3120,Columbidae,10
840,14,CALIFORNIA,136,LAKE CACHUMA,34.6739607,-119.6685329,2016,3120,Columbidae,4
840,14,CALIFORNIA,158,SATTLEY,39.6153759,-120.4258218,2016,3120,Columbidae,1
840,14,CALIFORNIA,172,MORAGA,37.8183531,-122.1464708,2016,3120,Columbidae,4
840,14,CALIFORNIA,182,LAYTONVILLE,39.6878368,-123.484892,2016,3120,Columbidae,18
840,14,CALIFORNIA,185,DOWNIEVILLE,39.5602197,-120.8280109,2016,3120,Columbidae,2
840,14,CALIFORNIA,186,MARK WEST,38.5498734,-122.719303,2016,3120,Columbidae,23
840,14,CALIFORNIA,188,RIVERTON,38.7694117,-120.4473869,2016,3120,Columbidae,1
840,14,CALIFORNIA,189,COYOTE,37.2521703,-121.6774341,2016,3120,Columbidae,8
840,14,CALIFORNIA,193,BODEGA BAY,38.3407717,-123.0480649,2016,3120,Columbidae,4
840,14,CALIFORNIA,194,WATERMAN GAP,37.2115267,-122.1565019,2016,3120,Columbidae,19
840,14,CALIFORNIA,201,HAT CREEK,50.78927,-121.61208,2016,3120,Columbidae,2
840,14,CALIFORNIA,221,CLEVELAND NF,32.92408,-116.48047,2016,3120,Columbidae,2
840,14,CALIFORNIA,302,GLEN ELLEN 2,38.3796305,-122.5109615,2016,3120,Columbidae,2
840,14,CALIFORNIA,308,CHAOS CRATER,40.4976057,-121.4282989,2016,3120,Columbidae,2
840,14,CALIFORNIA,313,ANGELUS OAKS,34.0809816,-116.8865694,2016,3120,Columbidae,12
840,14,CALIFORNIA,319,PESCADERO,37.1650627,-122.2276839,2016,3120,Columbidae,32
840,14,CALIFORNIA,415,PAXTON,40.0402279,-120.9961818,2016,3120,Columbidae,8
840,14,CALIFORNIA,416,MEADOW VALLEY,39.9493657,-121.0380629,2016,3120,Columbidae,5
840,14,CALIFORNIA,418,FOREST HILL,39.0192397,-120.8263239,2016,3120,Columbidae,7
840,14,CALIFORNIA,421,COULTERVILLE,37.7104224,-120.1968622,2016,3120,Columbidae,1
840,14,CALIFORNIA,902,SHIP MTN.,41.8824344,-123.8192961,2016,3120,Columbidae,2
840,17,COLORADO,216,PAONIA,38.8387837,-107.6025079,2016,3120,Columbidae,6
840,17,COLORADO,223,PIEDRA,37.2329382,-107.183624,2016,3120,Columbidae,1
840,17,COLORADO,318,GRIBBLES PRK,38.6441327,-105.7794649,2016,3120,Columbidae,16
840,60,NEW MEXICO,4,OJO SARCO,36.0797837,-105.7975849,2016,3120,Columbidae,4
840,60,NEW MEXICO,28,CLOUDCROFT,32.9576087,-105.7457016,2016,3120,Columbidae,17
840,60,NEW MEXICO,107,BLUEWATER LAKE,35.2666767,-108.1239789,2016,3120,Columbidae,1
840,60,NEW MEXICO,158,MT. TAYLOR 2,35.4463117,-107.443336,2016,3120,Columbidae,4
840,69,OREGON,1,TIMBER,45.76385,-123.3149615,2016,3120,Columbidae,5
840,69,OREGON,9,SALADO,44.5508867,-123.8027616,2016,3120,Columbidae,23
840,69,OREGON,26,DAYS CREEK,42.9708857,-123.2140269,2016,3120,Columbidae,16
840,69,OREGON,33,ADAIR,42.7983457,-82.6340339,2016,3120,Columbidae,2
840,69,OREGON,43,MT HOOD,45.5378447,-121.4834369,2016,3120,Columbidae,1
840,69,OREGON,117,GLASGOW,48.2045751,-106.5334326,2016,3120,Columbidae,14
840,69,OREGON,142,NICOLAI MTN.,46.0240767,-123.368287,2016,3120,Columbidae,7
840,69,OREGON,159,EMIGRANT LAKE 2,42.1116865,-122.5366725,2016,3120,Columbidae,1
840,69,OREGON,201,TRASK SUMMIT,45.3325047,-123.6071629,2016,3120,Columbidae,28
840,69,OREGON,217,COQUILLE,43.2152987,-124.0771559,2016,3120,Columbidae,7
840,69,OREGON,219,WARNER MTN.,43.6397927,-122.3059389,2016,3120,Columbidae,1
840,69,OREGON,237,SALEM,43.2100377,-73.3079649,2016,3120,Columbidae,5
840,69,OREGON,243,LORANE,43.8371705,-123.2383928,2016,3120,Columbidae,17
840,69,OREGON,409,Harlan 2,44.5127163,-123.6336,2016,3120,Columbidae,20
840,69,OREGON,902,RILEY PEAK,44.9614977,-123.6964573,2016,3120,Columbidae,15
840,69,OREGON,903,SANTIAM,44.6045407,-122.4550929,2016,3120,Columbidae,2
840,69,OREGON,904,SCAPPOOSE,45.7909747,-122.8698811,2016,3120,Columbidae,1
840,69,OREGON,906,Bull Run,45.4256434,-122.2238378,2016,3120,Columbidae,7
840,89,WASHINGTON,1,OZETTE,48.2533397,-124.2718359,2016,3120,Columbidae,11
840,89,WASHINGTON,2,PORT ANGELES,48.1127527,-123.3860549,2016,3120,Columbidae,13
840,89,WASHINGTON,4,NEWHALEM,48.7004247,-121.2122809,2016,3120,Columbidae,4
840,89,WASHINGTON,9,TAHOLAH,47.3475467,-124.2942279,2016,3120,Columbidae,9
840,89,WASHINGTON,10,KAMILCHE,47.1305417,-123.0994489,2016,3120,Columbidae,5
840,89,WASHINGTON,17,BUNKER HILL,46.2603987,-123.1780619,2016,3120,Columbidae,2
840,89,WASHINGTON,53,HURRICANE RG,47.9693587,-123.4988999,2016,3120,Columbidae,3
840,89,WASHINGTON,78,PE ELL,46.5431147,-123.4697269,2016,3120,Columbidae,3
840,89,WASHINGTON,79,RAINIER,46.8066477,-122.4157869,2016,3120,Columbidae,2
840,89,WASHINGTON,85,CONCRETE,48.534,-121.847,2016,3120,Columbidae,1
840,89,WASHINGTON,86,Greenwater,52.4348,-103.61462,2016,3120,Columbidae,1
840,89,WASHINGTON,173,INDEX 2,47.665073,-121.288281,2016,3120,Columbidae,1
840,89,WASHINGTON,242,MENDOTA 3,46.726114,-122.86911,2016,3120,Columbidae,5
840,89,WASHINGTON,905,DECEPTION,48.4960717,-122.6255719,2016,3120,Columbidae,3
840,2,ALABAMA,1,ST FLORIAN,34.868688,-87.6041417,2016,3131,Columbidae,20
840,2,ALABAMA,16,HOWARD,33.8481773,-87.5888357,2016,3131,Columbidae,4
840,2,ALABAMA,24,SPRAGUE,32.1312407,-86.2754989,2016,3131,Columbidae,2
840,2,ALABAMA,46,GUNTERSVILLE,34.3142387,-86.4773569,2016,3131,Columbidae,2
840,2,ALABAMA,47,JENA,33.1379607,-87.8205274,2016,3131,Columbidae,1
840,2,ALABAMA,50,WHITEHALL,32.3276808,-86.7118894,2016,3131,Columbidae,1
840,2,ALABAMA,55,ELAMVILLE,31.6676037,-85.6508719,2016,3131,Columbidae,1
840,2,ALABAMA,141,ALABAMA PT 2,30.2816323,-87.5183917,2016,3131,Columbidae,7
840,3,ALASKA,24,KETCHIKAN,55.3269454,-131.5213101,2016,3131,Columbidae,49
124,4,Alberta,1,SEVEN PERSON,49.93222,-110.84452,2016,3131,Columbidae,6
124,4,Alberta,4,FORT MACLEOD,49.81509,-113.56982,2016,3131,Columbidae,11
124,4,Alberta,6,BINDLOSS,50.74668,-110.25869,2016,3131,Columbidae,5
124,4,Alberta,9,BUFFALO HILL,50.60147,-113.02852,2016,3131,Columbidae,19
124,4,Alberta,11,CEREAL,51.00887,-110.7956,2016,3131,Columbidae,6
124,4,Alberta,13,ROWLEY,51.77818,-112.64694,2016,3131,Columbidae,20
124,4,Alberta,20,HALKIRK,52.17208,-112.33861,2016,3131,Columbidae,8
124,4,Alberta,22,RAVEN,52.02799,-114.47782,2016,3131,Columbidae,7
124,4,Alberta,26,DERWENT,53.49666,-110.86644,2016,3131,Columbidae,15
124,4,Alberta,29,CALAHOO,53.68701,-113.88548,2016,3131,Columbidae,8
124,4,Alberta,31,RONAN,53.80272,-115.26551,2016,3131,Columbidae,12
124,4,Alberta,37,THERIEN,54.26763,-111.2782,2016,3131,Columbidae,31
124,4,Alberta,101,MANYBERRIES,49.26127,-110.69079,2016,3131,Columbidae,2
124,4,Alberta,107,WARDLOW,50.92139,-111.11275,2016,3131,Columbidae,1
124,4,Alberta,109,MAZEPPA,50.42635,-113.82728,2016,3131,Columbidae,10
124,4,Alberta,111,ESTHER,51.44533,-110.38028,2016,3131,Columbidae,7
124,4,Alberta,112,HEMARUKA,51.57551,-111.20079,2016,3131,Columbidae,2
124,4,Alberta,113,DOWLING LAKE,51.95441,-112.13115,2016,3131,Columbidae,8
124,4,Alberta,114,SHEEP COULEE,51.56148,-113.89621,2016,3131,Columbidae,19
124,4,Alberta,115,DIDSBURY,51.54794,-114.21268,2016,3131,Columbidae,4
124,4,Alberta,122,BENALTO,52.5814,-114.40959,2016,3131,Columbidae,10
124,4,Alberta,127,VIKING,53.10329,-111.76012,2016,3131,Columbidae,13
124,4,Alberta,136,BEAVERDAM,54.18052,-110.30494,2016,3131,Columbidae,1
124,4,Alberta,208,ENCHANT,50.16448,-112.31428,2016,3131,Columbidae,1
124,4,Alberta,209,ENSIGN,50.48464,-113.39021,2016,3131,Columbidae,9
124,4,Alberta,210,LONGVIEW,50.51364,-114.2469,2016,3131,Columbidae,3
124,4,Alberta,211,ACADIA VALLY,51.35788,-110.19278,2016,3131,Columbidae,3
124,4,Alberta,214,KATHYRN,51.4154,-113.7321,2016,3131,Columbidae,12
124,4,Alberta,220,BASHAW,52.52175,-112.85969,2016,3131,Columbidae,28
124,4,Alberta,221,LACOMBE,52.55125,-113.93962,2016,3131,Columbidae,12
124,4,Alberta,222,RIMBEY,52.65721,-114.19363,2016,3131,Columbidae,8
124,4,Alberta,228,SKARO,53.93434,-112.70335,2016,3131,Columbidae,7
124,4,Alberta,229,CALMAR,53.3377,-113.85339,2016,3131,Columbidae,2
124,4,Alberta,251,SWAN RIVER,54.999,-115.25994,2016,3131,Columbidae,3
124,4,Alberta,255,BEAR LAKE,55.46148,-119.0514,2016,3131,Columbidae,1
124,4,Alberta,302,LEGEND,49.75642,-111.51741,2016,3131,Columbidae,10
124,4,Alberta,304,SUMMERVIEW,49.74948,-113.78431,2016,3131,Columbidae,7
124,4,Alberta,309,CLEAR LAKE,50.01932,-113.39054,2016,3131,Columbidae,2
124,4,Alberta,311,CHINOOK,51.44452,-110.91913,2016,3131,Columbidae,5
124,4,Alberta,313,DOROTHY,51.32885,-112.04431,2016,3131,Columbidae,10
124,4,Alberta,314,CARBON,51.35786,-113.16917,2016,3131,Columbidae,26
124,4,Alberta,315,LOCHEND LAKE,51.32922,-114.25969,2016,3131,Columbidae,13
124,4,Alberta,319,FLEET,51.99756,-111.81444,2016,3131,Columbidae,15
124,4,Alberta,321,TEES,52.72674,-113.22096,2016,3131,Columbidae,22
124,4,Alberta,404,TROUT CREEK,49.875772,-114.079114,2016,3131,Columbidae,2
124,4,Alberta,407,Lake Newell,50.56388,-111.84916,2016,3131,Columbidae,1
124,4,Alberta,501,Rolling Hills,50.08913,-111.56814,2016,3131,Columbidae,2
124,4,Alberta,508,BASSANO,50.83397,-112.45127,2016,3131,Columbidae,28
124,4,Alberta,511,Buffalo,50.765188,-110.673829,2016,3131,Columbidae,8
124,4,Alberta,512,Onefour,49.10149,-110.56255,2016,3131,Columbidae,1
124,4,Alberta,608,New Majorville,50.60144,-112.99408,2016,3131,Columbidae,9
840,6,ARIZONA,12,OATMAN,34.9859877,-114.4831159,2016,3131,Columbidae,1
840,6,ARIZONA,20,NEW RIVER,33.7034749,-112.2723363,2016,3131,Columbidae,7
840,6,ARIZONA,74,ARABY,32.8548017,-114.4452209,2016,3131,Columbidae,5
840,6,ARIZONA,108,SELIGMAN,35.2307957,-112.5859679,2016,3131,Columbidae,10
840,6,ARIZONA,127,CACTUS FOREST,32.9583127,-111.3334729,2016,3131,Columbidae,4
840,6,ARIZONA,130,ORGAN PIPE,31.9571917,-112.7999879,2016,3131,Columbidae,8
840,6,ARIZONA,219,HOPE 2,33.9225847,-113.82479,2016,3131,Columbidae,3
840,7,ARKANSAS,5,STAMPS,33.3755757,-93.4706879,2016,3131,Columbidae,2
840,7,ARKANSAS,8,HUGHES,34.9269397,-90.5065699,2016,3131,Columbidae,1
840,7,ARKANSAS,22,COAL HILL,35.4263985,-93.6640897,2016,3131,Columbidae,2
840,7,ARKANSAS,24,MASSARD,35.3514159,-94.3318236,2016,3131,Columbidae,30
840,7,ARKANSAS,35,Dell,35.901224,-90.000225,2016,3131,Columbidae,2
840,7,ARKANSAS,37,Russell,35.373736,-91.658032,2016,3131,Columbidae,3
840,7,ARKANSAS,117,WILSON,35.5182227,-90.2867129,2016,3131,Columbidae,2
124,11,British Columbia,45,WILLIAMS LK,52.14952,-122.06768,2016,3131,Columbidae,2
124,11,British Columbia,71,LAKELSE,54.37166,-128.58215,2016,3131,Columbidae,2
124,11,British Columbia,220,LAVINGTON,50.26615,-119.08702,2016,3131,Columbidae,5
124,11,British Columbia,313,DUCK LAKE,49.78313,-124.17869,2016,3131,Columbidae,11
124,11,British Columbia,401,SALT SPR. IS,48.74932,-123.54811,2016,3131,Columbidae,2
124,11,British Columbia,420,CANOE POINT,50.81583,-119.08629,2016,3131,Columbidae,35
124,11,British Columbia,608,PARK RILL,49.25746,-119.5261,2016,3131,Columbidae,4
840,14,CALIFORNIA,21,HUGHSON,37.5947824,-120.860951,2016,3131,Columbidae,9
840,14,CALIFORNIA,49,PALO VERDE,33.3339864,-112.677217,2016,3131,Columbidae,1
840,14,CALIFORNIA,54,ORANGE COVE,36.6315997,-119.3047559,2016,3131,Columbidae,25
840,14,CALIFORNIA,59,INYOKERN,35.6076917,-117.800197,2016,3131,Columbidae,2
840,14,CALIFORNIA,79,COHASSET,39.9935292,-121.704424,2016,3131,Columbidae,3
840,14,CALIFORNIA,89,NILAND,33.2200507,-115.4847789,2016,3131,Columbidae,11
840,14,CALIFORNIA,112,PEARBLOSSOM,34.5208799,-117.9406162,2016,3131,Columbidae,10
840,14,CALIFORNIA,127,SANGER,36.6992615,-119.5118359,2016,3131,Columbidae,2
840,14,CALIFORNIA,138,CRESTON,49.07317,-116.52268,2016,3131,Columbidae,1
840,14,CALIFORNIA,151,LIKELY,41.2351468,-120.3368295,2016,3131,Columbidae,2
840,14,CALIFORNIA,153,GOLD HILL,38.7687607,-120.9253159,2016,3131,Columbidae,4
840,14,CALIFORNIA,155,WESTLEY,37.5141365,-121.1597352,2016,3131,Columbidae,2
840,14,CALIFORNIA,158,SATTLEY,39.6153759,-120.4258218,2016,3131,Columbidae,1
840,14,CALIFORNIA,165,DAVIS CREEK,41.7332787,-120.3753129,2016,3131,Columbidae,1
840,14,CALIFORNIA,166,DORRIS,41.9998861,-121.8916067,2016,3131,Columbidae,12
840,14,CALIFORNIA,172,MORAGA,37.8183531,-122.1464708,2016,3131,Columbidae,5
840,14,CALIFORNIA,177,CEDARVILLE,41.5295757,-120.1718519,2016,3131,Columbidae,87
840,14,CALIFORNIA,186,MARK WEST,38.5498734,-122.719303,2016,3131,Columbidae,27
840,14,CALIFORNIA,189,COYOTE,37.2521703,-121.6774341,2016,3131,Columbidae,19
840,14,CALIFORNIA,190,COPPEROPOLIS,37.9834939,-120.6452578,2016,3131,Columbidae,4
840,14,CALIFORNIA,195,GREENFIELD,36.257393,-121.4234494,2016,3131,Columbidae,6
840,14,CALIFORNIA,240,WILLOW SPRINGS 2,34.971073,-118.148742,2016,3131,Columbidae,2
840,14,CALIFORNIA,252,Hollister 2,36.8242987,-121.2813,2016,3131,Columbidae,13
840,14,CALIFORNIA,345,Harbor Lake 2,33.7909207,-118.2918,2016,3131,Columbidae,7
840,14,CALIFORNIA,357,POLOMA,38.3539344,-120.6797897,2016,3131,Columbidae,4
840,14,CALIFORNIA,503,Tracy 2,37.665124,-121.73284,2016,3131,Columbidae,19
840,14,CALIFORNIA,901,GAZELLE,41.5209207,-122.5202179,2016,3131,Columbidae,1
840,17,COLORADO,4,HARMONY,40.5090827,-105.0392299,2016,3131,Columbidae,1
840,17,COLORADO,19,RUSH,38.8398807,-104.0920409,2016,3131,Columbidae,17
840,17,COLORADO,35,HUDSON,40.3052417,-104.6963429,2016,3131,Columbidae,9
840,17,COLORADO,44,BETHUNE,39.3883077,-102.4274519,2016,3131,Columbidae,5
840,17,COLORADO,49,EDISON,38.6945177,-104.0715939,2016,3131,Columbidae,2
840,17,COLORADO,55,ALAMOSA,37.1810849,-105.7459646,2016,3131,Columbidae,10
840,17,COLORADO,58,CAMPO,37.1052137,-102.5796589,2016,3131,Columbidae,12
840,17,COLORADO,205,GROVER,40.8566157,-104.5420149,2016,3131,Columbidae,27
840,17,COLORADO,207,AMHERST,40.6141447,-102.0845649,2016,3131,Columbidae,4
840,17,COLORADO,216,PAONIA,38.8387837,-107.6025079,2016,3131,Columbidae,1
840,17,COLORADO,305,NUNN,40.8627005,-104.6390073,2016,3131,Columbidae,33
840,17,COLORADO,306,FORT MORGAN,40.3492697,-103.7997669,2016,3131,Columbidae,22
840,17,COLORADO,307,JULESBURG,40.9679121,-102.3257889,2016,3131,Columbidae,5
840,17,COLORADO,312,BENNETT,39.7238537,-104.3773535,2016,3131,Columbidae,10
840,17,COLORADO,314,BURLINGTON,39.1718637,-102.1105579,2016,3131,Columbidae,7
840,17,COLORADO,319,ELLICOTT,38.5495769,-104.4588733,2016,3131,Columbidae,4
840,17,COLORADO,320,KARVAL,38.7624107,-103.3489149,2016,3131,Columbidae,2
840,17,COLORADO,321,SHERIDAN LAK,38.2460697,-102.2107619,2016,3131,Columbidae,63
840,17,COLORADO,326,WALSENBURG,37.6176717,-104.7749029,2016,3131,Columbidae,1
840,17,COLORADO,359,RIFLE FALLS,39.7578337,-107.6922689,2016,3131,Columbidae,2
840,17,COLORADO,374,MOON PASS,37.8392179,-106.2560823,2016,3131,Columbidae,34
840,17,COLORADO,412,PROSPECT VALLEY 2,39.9848652,-104.5086695,2016,3131,Columbidae,12
840,17,COLORADO,419,DOYLE BRIDGE 2,38.0641056,-104.4189177,2016,3131,Columbidae,6
840,17,COLORADO,422,Cortez 2,37.5166544,-108.46451,2016,3131,Columbidae,8
840,18,CONNECTICUT,3,BUCKINGHAM,41.7026037,-72.5159969,2016,3131,Columbidae,2
840,18,CONNECTICUT,4,UNCASVILLE,41.417728,-72.1530946,2016,3131,Columbidae,2
840,18,CONNECTICUT,14,MID HADDAM,41.5651229,-72.5906625,2016,3131,Columbidae,6
840,18,CONNECTICUT,15,SOUTHINGTON,41.5832977,-72.8512329,2016,3131,Columbidae,1
840,18,CONNECTICUT,116,GRANBY,41.8805267,-72.9557559,2016,3131,Columbidae,14
840,21,DELAWARE,1,MT PLEASANT,39.5003037,-75.6860679,2016,3131,Columbidae,3
840,21,DELAWARE,3,HARRINGTON,38.9594417,-75.5366119,2016,3131,Columbidae,14
840,21,DELAWARE,107,HOLLEYVILLE 2,38.6736346,-75.2351111,2016,3131,Columbidae,1
840,25,FLORIDA,25,SCOTTSMOOR,28.7481187,-80.8712309,2016,3131,Columbidae,2
840,25,FLORIDA,31,INDIANTOWN,26.9657323,-80.3854635,2016,3131,Columbidae,7
840,25,FLORIDA,69,KISSIMMEE,28.3225489,-81.3372759,2016,3131,Columbidae,5
840,25,FLORIDA,73,ARBUCKLE,27.7611546,-81.4536353,2016,3131,Columbidae,2
840,25,FLORIDA,77,DAVIE,26.0856265,-80.2292965,2016,3131,Columbidae,17
840,25,FLORIDA,79,HOMESTEAD,25.4912637,-80.5425082,2016,3131,Columbidae,1
840,25,FLORIDA,116,CITRUS PARK,28.0402277,-82.5089729,2016,3131,Columbidae,15
840,25,FLORIDA,175,VERO BEACH,27.8610752,-80.4489977,2016,3131,Columbidae,1
840,25,FLORIDA,283,SUGARLOAF KEY 2,24.597703,-81.5829559,2016,3131,Columbidae,1
840,25,FLORIDA,905,CROOM,28.5817572,-82.1873953,2016,3131,Columbidae,2
840,27,GEORGIA,27,CARTERSVILLE,34.0545254,-84.7868559,2016,3131,Columbidae,1
840,27,GEORGIA,35,MACON,32.9464727,-83.6478349,2016,3131,Columbidae,30
840,27,GEORGIA,51,WADLEY,32.88997,-82.3672037,2016,3131,Columbidae,3
840,27,GEORGIA,57,BOSTON,30.6653217,-83.80112,2016,3131,Columbidae,8
840,27,GEORGIA,309,MILLEN,32.6387756,-81.8440915,2016,3131,Columbidae,2
840,27,GEORGIA,311,OUSLEY,30.7949952,-83.4309121,2016,3131,Columbidae,6
840,27,GEORGIA,314,OWENSBORO,31.911593,-83.3946338,2016,3131,Columbidae,2
840,27,GEORGIA,321,LAKEVIEW,34.3086241,-85.9323092,2016,3131,Columbidae,2
840,27,GEORGIA,337,DAVIS CROSSROADS,34.7223756,-85.424102,2016,3131,Columbidae,4
840,27,GEORGIA,430,STONEY POINT 2,33.6511789,-85.2195466,2016,3131,Columbidae,2
840,33,IDAHO,4,GIFFORD,46.4532553,-116.5560346,2016,3131,Columbidae,1
840,33,IDAHO,10,BAKER,45.0341095,-113.5624829,2016,3131,Columbidae,6
840,33,IDAHO,14,LEADORE,44.722359,-113.5203605,2016,3131,Columbidae,9
840,33,IDAHO,17,BLACKS CREEK,43.455341,-116.0962005,2016,3131,Columbidae,20
840,33,IDAHO,20,CRATERS,43.4619319,-113.5630006,2016,3131,Columbidae,4
840,33,IDAHO,21,SPRINGFIELD,43.1104288,-112.7317982,2016,3131,Columbidae,1
840,33,IDAHO,22,RIRIE,43.5343116,-111.7010272,2016,3131,Columbidae,12
840,33,IDAHO,25,MAGIC MTN,42.3311564,-114.2794532,2016,3131,Columbidae,2
840,33,IDAHO,27,POCATELLO,42.8548166,-112.519388,2016,3131,Columbidae,21
840,33,IDAHO,124,PASADENA VAL,42.953922,-115.2124573,2016,3131,Columbidae,22
840,33,IDAHO,204,JOEL,46.4470219,-116.8391482,2016,3131,Columbidae,3
840,33,IDAHO,221,MUD LAKE,43.8124267,-112.3960119,2016,3131,Columbidae,14
840,33,IDAHO,222,BATES,43.8248162,-111.2006106,2016,3131,Columbidae,5
840,33,IDAHO,225,CEDAR HILL,42.431685,-114.0888322,2016,3131,Columbidae,16
840,33,IDAHO,226,ALMO,42.2100017,-113.8402099,2016,3131,Columbidae,1
840,33,IDAHO,228,PRESTON,42.0021387,-111.9538098,2016,3131,Columbidae,13
840,34,ILLINOIS,1,GUILFORD,42.2101956,-90.0603721,2016,3131,Columbidae,6
840,34,ILLINOIS,2,MILL CREEK,42.1593177,-89.3321502,2016,3131,Columbidae,11
840,34,ILLINOIS,3,HOLCOMB,42.0711057,-89.0756312,2016,3131,Columbidae,3
840,34,ILLINOIS,6,ITASCA,42.0160676,-87.908702,2016,3131,Columbidae,2
840,34,ILLINOIS,7,ATKINSON,41.3974197,-90.0300702,2016,3131,Columbidae,10
840,34,ILLINOIS,10,SHEFFIELD,41.3504896,-89.7704347,2016,3131,Columbidae,16
840,34,ILLINOIS,11,BUDA,41.3356226,-89.7085965,2016,3131,Columbidae,10
840,34,ILLINOIS,13,STREATOR,41.0834818,-88.8325718,2016,3131,Columbidae,3
840,34,ILLINOIS,15,ESSEX,34.7336313,-115.2438758,2016,3131,Columbidae,14
840,34,ILLINOIS,16,NEWARK,41.530722,-88.5743214,2016,3131,Columbidae,26
840,34,ILLINOIS,18,NEW LENOX,41.4686591,-87.964599,2016,3131,Columbidae,15
840,34,ILLINOIS,19,GULFPORT,40.8036571,-91.0568488,2016,3131,Columbidae,12
840,34,ILLINOIS,21,CHANDLERVILL,40.0810774,-90.0013197,2016,3131,Columbidae,19
840,34,ILLINOIS,22,TERRE HAUTE,40.6514497,-90.9814019,2016,3131,Columbidae,1
840,34,ILLINOIS,23,WILLIAMSFLD,40.9170762,-90.0331516,2016,3131,Columbidae,2
840,34,ILLINOIS,24,CAMERON,40.8602881,-90.5087794,2016,3131,Columbidae,2
840,34,ILLINOIS,26,MONICA,40.9305488,-89.7938841,2016,3131,Columbidae,1
840,34,ILLINOIS,28,MACKINAW,40.4972564,-89.4243639,2016,3131,Columbidae,15
840,34,ILLINOIS,29,MINONK,40.9275498,-88.95069,2016,3131,Columbidae,3
840,34,ILLINOIS,30,MONTICELLO,40.0787817,-88.5584799,2016,3131,Columbidae,7
840,34,ILLINOIS,32,PONTIAC,40.8985328,-88.6754284,2016,3131,Columbidae,3
840,34,ILLINOIS,37,ATHENSVILLE,39.4187241,-90.1660041,2016,3131,Columbidae,6
840,34,ILLINOIS,40,PAWNEE,39.5753678,-89.5158088,2016,3131,Columbidae,2
840,34,ILLINOIS,42,ROSAMOND,39.3998674,-89.2049844,2016,3131,Columbidae,5
840,34,ILLINOIS,43,HUMPHREY,39.5535471,-89.4517437,2016,3131,Columbidae,3
840,34,ILLINOIS,44,FAIRLAND,39.8947071,-88.103613,2016,3131,Columbidae,4
840,34,ILLINOIS,47,HUMBOLDT,39.6153298,-88.3865649,2016,3131,Columbidae,15
840,34,ILLINOIS,49,COLUMBIA,38.3851828,-90.2587326,2016,3131,Columbidae,9
840,34,ILLINOIS,50,MASCOUTAH LK,38.5256201,-89.8193422,2016,3131,Columbidae,6
840,34,ILLINOIS,51,JAMESTOWN,38.6981367,-89.5364836,2016,3131,Columbidae,9
840,34,ILLINOIS,52,ST MORGAN,38.6699717,-89.6602444,2016,3131,Columbidae,5
840,34,ILLINOIS,53,BEAUCOUP,38.3511978,-89.2943026,2016,3131,Columbidae,1
840,34,ILLINOIS,54,BRNT PRAIRIE,38.248185,-88.233672,2016,3131,Columbidae,7
840,34,ILLINOIS,56,OLNEY,38.70688,-88.1676148,2016,3131,Columbidae,2
840,34,ILLINOIS,60,BREMEN,37.9708433,-89.7475091,2016,3131,Columbidae,2
840,34,ILLINOIS,65,SHANNON,34.3863104,-85.0490155,2016,3131,Columbidae,15
840,34,ILLINOIS,66,CALEDONIA,42.3994754,-88.9154674,2016,3131,Columbidae,3
840,34,ILLINOIS,68,TROY GROVE,41.4844552,-89.0833869,2016,3131,Columbidae,4
840,34,ILLINOIS,69,SENECA,41.311436,-88.5903464,2016,3131,Columbidae,2
840,34,ILLINOIS,71,DUNCAN MILLS,40.3045239,-90.1357207,2016,3131,Columbidae,1
840,34,ILLINOIS,74,ELDRED,39.2888385,-90.550608,2016,3131,Columbidae,11
840,34,ILLINOIS,78,DARMSTADT,38.320123,-89.7037028,2016,3131,Columbidae,2
840,34,ILLINOIS,80,SANDUSKY,37.2026548,-89.274296,2016,3131,Columbidae,11
840,34,ILLINOIS,104,CHERRY VAL 2,42.1740585,-88.9445833,2016,3131,Columbidae,1
840,34,ILLINOIS,135,PAYSON,39.9258337,-91.3130559,2016,3131,Columbidae,5
840,34,ILLINOIS,301,LAKE GALENA,42.3972257,-90.2808839,2016,3131,Columbidae,10
840,34,ILLINOIS,302,LAKE SUMMERSET,42.4617907,-89.3817229,2016,3131,Columbidae,6
840,34,ILLINOIS,304,KEITHSBURG,41.0847167,-90.9006359,2016,3131,Columbidae,2
840,34,ILLINOIS,307,CLAYTON,40.0179525,-90.9316336,2016,3131,Columbidae,5
840,34,ILLINOIS,308,WAYNESVILLE,40.2639127,-89.1297627,2016,3131,Columbidae,2
840,34,ILLINOIS,309,GRIDLEY,40.7542777,-88.8718234,2016,3131,Columbidae,7
840,34,ILLINOIS,312,CONCORD WEST,39.8173797,-90.4058819,2016,3131,Columbidae,19
840,34,ILLINOIS,313,HARRISTOWN,39.8529571,-89.0850451,2016,3131,Columbidae,4
840,34,ILLINOIS,315,MARSHALL,35.939336,-92.442323,2016,3131,Columbidae,24
840,35,INDIANA,6,MIDDLEBURY,41.7259077,-85.6760109,2016,3131,Columbidae,37
840,35,INDIANA,10,FOWLER,40.6790779,-87.3633993,2016,3131,Columbidae,7
840,35,INDIANA,11,W LAFAYETTE,40.4076491,-87.0361216,2016,3131,Columbidae,1
840,35,INDIANA,13,GALVESTON,40.5842651,-86.1842198,2016,3131,Columbidae,3
840,35,INDIANA,14,THORNTOWN,40.1495187,-86.6959256,2016,3131,Columbidae,16
840,35,INDIANA,16,MIDDLETOWN,40.0330447,-85.5449749,2016,3131,Columbidae,5
840,35,INDIANA,19,WABASH,40.8532797,-85.9044039,2016,3131,Columbidae,11
840,35,INDIANA,20,BERNE,40.7030618,-84.8534885,2016,3131,Columbidae,9
840,35,INDIANA,21,PIMENTO,39.3319867,-87.3743359,2016,3131,Columbidae,1
840,35,INDIANA,22,BRAZIL,39.5330205,-87.1438756,2016,3131,Columbidae,4
840,35,INDIANA,26,SPENCER,39.2638847,-86.7031329,2016,3131,Columbidae,2
840,35,INDIANA,28,SEXTON,39.6847217,-85.4688349,2016,3131,Columbidae,1
840,35,INDIANA,29,MILROY,39.4677041,-85.4421615,2016,3131,Columbidae,72
840,35,INDIANA,35,INDIAN SPGS,38.7744667,-86.7647789,2016,3131,Columbidae,2
840,35,INDIANA,41,SCOTTSBURG,38.6347156,-85.7471699,2016,3131,Columbidae,5
840,35,INDIANA,103,LAKEVILLE,41.6368887,-86.3655159,2016,3131,Columbidae,1
840,35,INDIANA,108,PACKERTOWN 2,41.1013504,-85.8354611,2016,3131,Columbidae,30
840,35,INDIANA,201,PORTAGE 2,41.5361624,-87.1967394,2016,3131,Columbidae,41
840,35,INDIANA,301,CROWN POINT,41.3911052,-87.3693435,2016,3131,Columbidae,1
840,35,INDIANA,302,LAPORTE,41.6367797,-86.8508149,2016,3131,Columbidae,4
840,35,INDIANA,303,LAGRANGE,41.750602,-85.4765733,2016,3131,Columbidae,60
840,35,INDIANA,306,FRANKFORT,40.1985767,-86.4502189,2016,3131,Columbidae,36
840,35,INDIANA,308,DECATUR,40.8100197,-84.9562309,2016,3131,Columbidae,23
840,35,INDIANA,309,WALLACE,39.9820787,-87.3561447,2016,3131,Columbidae,1
840,35,INDIANA,311,NEW CASTLE,39.9464269,-85.0906911,2016,3131,Columbidae,16
840,35,INDIANA,313,NEWBERRY,39.125475,-87.0543672,2016,3131,Columbidae,21
840,35,INDIANA,903,KANKAKEE SANDS,41.0474227,-87.4511851,2016,3131,Columbidae,2
840,36,IOWA,2,EXLINE,40.6527332,-92.8864804,2016,3131,Columbidae,3
840,36,IOWA,3,MELROSE,39.9203767,-91.2963699,2016,3131,Columbidae,2
840,36,IOWA,6,BRYANT,41.9751747,-90.2964159,2016,3131,Columbidae,5
840,36,IOWA,7,WEST LIBERTY,41.5687389,-91.2703838,2016,3131,Columbidae,2
840,36,IOWA,9,BROOKLYN,41.8190707,-92.3572989,2016,3131,Columbidae,21
840,36,IOWA,13,PANTHER,41.6586017,-94.1444549,2016,3131,Columbidae,1
840,36,IOWA,14,WASHINGTON,33.6477247,-82.6759719,2016,3131,Columbidae,7
840,36,IOWA,17,MAQUOKETA,42.0435847,-90.6070319,2016,3131,Columbidae,3
840,36,IOWA,22,KANAWHA,42.9663334,-93.8524963,2016,3131,Columbidae,1
840,36,IOWA,24,SCRANTON,42.0345317,-94.5711599,2016,3131,Columbidae,9
840,36,IOWA,28,SIOUX CITY,42.4902437,-96.3743819,2016,3131,Columbidae,20
840,36,IOWA,30,DAVIS CORNER,43.3492727,-92.2585749,2016,3131,Columbidae,18
840,36,IOWA,33,GAZA,43.0405217,-95.5844739,2016,3131,Columbidae,7
840,36,IOWA,34,ROCK VALLEY,43.2574697,-96.2756889,2016,3131,Columbidae,26
840,36,IOWA,123,MCCALLSBURG,42.1663807,-93.3469609,2016,3131,Columbidae,5
840,38,KANSAS,6,WELLINGTON,37.3190352,-97.349158,2016,3131,Columbidae,7
840,38,KANSAS,10,COLDWATER,37.1645227,-99.2722929,2016,3131,Columbidae,3
840,38,KANSAS,11,ASHLAND,37.1334087,-99.7413179,2016,3131,Columbidae,2
840,38,KANSAS,12,LAKIN,37.9589257,-101.4316489,2016,3131,Columbidae,1
840,38,KANSAS,17,ELLINOR,38.3623234,-96.5605733,2016,3131,Columbidae,14
840,38,KANSAS,20,ALBERT,38.4636553,-98.9776363,2016,3131,Columbidae,11
840,38,KANSAS,26,GRANTVILLE,39.0805438,-95.5671042,2016,3131,Columbidae,4
840,38,KANSAS,27,ROCK CREEK,39.251508,-95.5347369,2016,3131,Columbidae,1
840,38,KANSAS,28,HANOVER,39.9000807,-96.8711409,2016,3131,Columbidae,2
840,38,KANSAS,29,SENECA,41.311436,-88.5903464,2016,3131,Columbidae,5
840,38,KANSAS,30,HOLLENBERG,39.9367553,-97.0124144,2016,3131,Columbidae,4
840,38,KANSAS,37,MISSLER,37.3143937,-100.4350879,2016,3131,Columbidae,1
840,38,KANSAS,301,PITTSBURG,37.3099157,-94.7416989,2016,3131,Columbidae,8
840,38,KANSAS,302,Morehead,37.3690207,-95.4488589,2016,3131,Columbidae,12
840,38,KANSAS,303,Reece,37.7958024,-96.4347911,2016,3131,Columbidae,1
840,38,KANSAS,308,Ulysses,37.3880114,-101.2492122,2016,3131,Columbidae,6
840,38,KANSAS,309,Trading Post,38.215197,-94.6125164,2016,3131,Columbidae,42
840,38,KANSAS,310,Le Loup,38.680958,-95.1212223,2016,3131,Columbidae,15
840,38,KANSAS,312,Goessel,38.2039494,-97.2078887,2016,3131,Columbidae,3
840,38,KANSAS,315,Grigston,38.4682058,-100.7232236,2016,3131,Columbidae,20
840,38,KANSAS,318,Olsburg,39.6529209,-96.5297375,2016,3131,Columbidae,2
840,38,KANSAS,321,Damar,39.3355726,-99.269502,2016,3131,Columbidae,6
840,38,KANSAS,420,Beloit 2,39.5671077,-98.1535799,2016,3131,Columbidae,7
840,39,KENTUCKY,5,KEYSBURG,36.664255,-87.0088713,2016,3131,Columbidae,6
840,39,KENTUCKY,6,CEDAR GROVE,36.9907469,-86.6314152,2016,3131,Columbidae,1
840,39,KENTUCKY,8,SULPHUR LICK,36.8194377,-85.7169959,2016,3131,Columbidae,1
840,39,KENTUCKY,10,SUNNYBROOK,36.6171577,-84.9933879,2016,3131,Columbidae,1
840,39,KENTUCKY,25,MERRIMAC,37.4126457,-85.1284099,2016,3131,Columbidae,6
840,39,KENTUCKY,40,BUENA VISTA,35.4779437,-119.2962109,2016,3131,Columbidae,1
840,39,KENTUCKY,43,PLUM,38.1661827,-84.0681929,2016,3131,Columbidae,29
840,39,KENTUCKY,44,EAST UNION,38.2051493,-83.9295763,2016,3131,Columbidae,4
840,39,KENTUCKY,112,BARDWELL 2,36.8621049,-89.0413978,2016,3131,Columbidae,18
840,39,KENTUCKY,118,Beattyville 2,37.6333333,-83.8,2016,3131,Columbidae,4
840,39,KENTUCKY,127,LEBANON JUNCTION,37.8249387,-85.7117159,2016,3131,Columbidae,1
840,42,LOUISIANA,59,ZWOLLE,31.4575093,-93.6603126,2016,3131,Columbidae,3
840,42,LOUISIANA,128,HAUGHTON,32.5540378,-93.482775,2016,3131,Columbidae,36
840,44,MAINE,9,GREENWOOD,44.3180457,-70.6509909,2016,3131,Columbidae,1
840,44,MAINE,19,HARMONY,40.5090827,-105.0392299,2016,3131,Columbidae,7
840,44,MAINE,21,BROOKS,50.56388,-111.84916,2016,3131,Columbidae,4
840,44,MAINE,32,CARRABASSETT,45.0776834,-70.2128823,2016,3131,Columbidae,3
840,44,MAINE,33,CHARLESTON,45.0524467,-69.0300449,2016,3131,Columbidae,11
840,44,MAINE,42,HUDSON,40.3052417,-104.6963429,2016,3131,Columbidae,1
840,44,MAINE,308,SEARSPORT,44.4594758,-68.9269629,2016,3131,Columbidae,7
124,45,Manitoba,1,ELMA,49.87065,-95.97518,2016,3131,Columbidae,2
124,45,Manitoba,2,DUFRESNE,49.72673,-96.72108,2016,3131,Columbidae,19
124,45,Manitoba,5,JORDAN,49.38436,-98.02424,2016,3131,Columbidae,25
124,45,Manitoba,9,CROLL,49.34073,-100.12712,2016,3131,Columbidae,8
124,45,Manitoba,11,BUTLER,49.77591,-101.34963,2016,3131,Columbidae,1
124,45,Manitoba,13,TYNDALL,50.07638,-96.60014,2016,3131,Columbidae,11
124,45,Manitoba,18,RIVERDALE,50.19625,-99.97931,2016,3131,Columbidae,2
124,45,Manitoba,21,BEULAH,50.29948,-101.06148,2016,3131,Columbidae,1
124,45,Manitoba,24,KULISH,51.50735,-100.55731,2016,3131,Columbidae,10
124,45,Manitoba,30,SWAN RIVER,54.999,-115.25994,2016,3131,Columbidae,14
124,45,Manitoba,43,CAMPER,51.0672,-98.11854,2016,3131,Columbidae,4
124,45,Manitoba,49,LENSWOOD,52.37626,-100.92107,2016,3131,Columbidae,43
124,45,Manitoba,102,GRUNTHAL,49.56482,-96.88941,2016,3131,Columbidae,6
124,45,Manitoba,103,ST F XAVIER,49.97542,-97.5052,2016,3131,Columbidae,4
124,45,Manitoba,105,HOLLAND,49.5463,-98.9148,2016,3131,Columbidae,6
124,45,Manitoba,107,LENA,49.01426,-99.61608,2016,3131,Columbidae,5
124,45,Manitoba,109,OAK LAKE,49.70979,-100.64473,2016,3131,Columbidae,20
124,45,Manitoba,111,ELVA,49.28134,-101.30176,2016,3131,Columbidae,1
124,45,Manitoba,116,DELTA BEACH,50.17603,-98.31412,2016,3131,Columbidae,14
124,45,Manitoba,118,MCCREARY,50.6981,-99.46174,2016,3131,Columbidae,4
124,45,Manitoba,121,WATTSVIEW,50.46177,-101.22319,2016,3131,Columbidae,25
124,45,Manitoba,203,GRETNA,49.10385,-97.84131,2016,3131,Columbidae,9
124,45,Manitoba,205,GRAYSVILLE,49.51136,-98.16004,2016,3131,Columbidae,6
124,45,Manitoba,207,BRANDONHILLS,49.42911,-99.87878,2016,3131,Columbidae,3
124,45,Manitoba,218,BIRNIE,50.58765,-99.44659,2016,3131,Columbidae,16
124,45,Manitoba,303,Green Ridge,49.04514,-97.183639,2016,3131,Columbidae,41
124,45,Manitoba,309,Turtle Mtn,49.13203,-100.08612,2016,3131,Columbidae,7
124,45,Manitoba,313,Lac du Bonnet,50.14935,-96.17788,2016,3131,Columbidae,4
124,45,Manitoba,403,Sperling-Homewood,49.51762,-97.68673,2016,3131,Columbidae,55
840,46,MARYLAND,3,VINDEX,39.4387843,-79.1698659,2016,3131,Columbidae,3
840,46,MARYLAND,5,POTOMAC PARK,39.6151476,-78.8123259,2016,3131,Columbidae,5
840,46,MARYLAND,6,WILLIAMSPORT,39.6129717,-77.8655019,2016,3131,Columbidae,51
840,46,MARYLAND,8,WOLFSVILLE,39.5780009,-77.5489971,2016,3131,Columbidae,4
840,46,MARYLAND,9,EMMITSBURG,39.7148359,-77.3304347,2016,3131,Columbidae,6
840,46,MARYLAND,11,OLNEY,38.70688,-88.1676148,2016,3131,Columbidae,1
840,46,MARYLAND,13,WARFIELDSBRG,39.516536,-77.0384304,2016,3131,Columbidae,2
840,46,MARYLAND,15,BACHMAN MILL,39.6359624,-76.9692792,2016,3131,Columbidae,12
840,46,MARYLAND,16,FOWBLESBURG,39.5515705,-76.8137896,2016,3131,Columbidae,5
840,46,MARYLAND,33,NORTHEAST,39.52083,-75.94228,2016,3131,Columbidae,2
840,46,MARYLAND,34,ELKTON,39.5231571,-75.9042529,2016,3131,Columbidae,11
840,46,MARYLAND,35,MILLINGTON,39.276509,-75.7640082,2016,3131,Columbidae,9
840,46,MARYLAND,36,MELITOTA,39.2640947,-76.1481269,2016,3131,Columbidae,2
840,46,MARYLAND,38,HARMONY,40.5090827,-105.0392299,2016,3131,Columbidae,12
840,46,MARYLAND,40,EASTON,30.7607257,-92.4607919,2016,3131,Columbidae,2
840,46,MARYLAND,41,GOLDEN HILL,38.4607494,-76.1997997,2016,3131,Columbidae,1
840,46,MARYLAND,42,HONGA,38.3676908,-76.2432656,2016,3131,Columbidae,4
840,46,MARYLAND,47,COKESBURY,38.1651924,-75.5797027,2016,3131,Columbidae,6
840,46,MARYLAND,51,JENNINGS,39.6733819,-79.1632229,2016,3131,Columbidae,2
840,46,MARYLAND,52,STEYER,39.3377737,-79.3101889,2016,3131,Columbidae,6
840,46,MARYLAND,55,PINEY GROVE,39.6919359,-78.4102428,2016,3131,Columbidae,1
840,46,MARYLAND,57,Jessup,39.231288,-76.664268,2016,3131,Columbidae,3
840,46,MARYLAND,58,St. Georges Island,38.114027,-76.470555,2016,3131,Columbidae,3
840,46,MARYLAND,102,ACCIDENT,39.5399409,-79.1662387,2016,3131,Columbidae,6
840,46,MARYLAND,110,WHEATON,39.0308897,-77.0169099,2016,3131,Columbidae,3
840,46,MARYLAND,151,MADONNA,39.63115,-76.52063,2016,3131,Columbidae,15
840,47,MASSACHUSETTS,8,MAYNARD,36.4436877,-90.9236529,2016,3131,Columbidae,7
840,47,MASSACHUSETTS,9,LITTLETON,42.5199697,-71.5305739,2016,3131,Columbidae,2
840,47,MASSACHUSETTS,14,BELCHERTOWN,42.2697823,-72.3589728,2016,3131,Columbidae,7
840,47,MASSACHUSETTS,16,S BARRE,42.3839807,-72.0992679,2016,3131,Columbidae,3
840,47,MASSACHUSETTS,19,CHESTERFIELD,42.3761743,-72.8474923,2016,3131,Columbidae,19
840,47,MASSACHUSETTS,112,HOLDEN,42.4447746,-71.8486346,2016,3131,Columbidae,2
840,47,MASSACHUSETTS,115,Warren 2,41.7487967,-73.350226,2016,3131,Columbidae,14
840,47,MASSACHUSETTS,118,CUMMINGTON 2,42.638288,-72.907824,2016,3131,Columbidae,9
840,49,MICHIGAN,1,ONTONAGON,46.8708967,-89.3135462,2016,3131,Columbidae,3
840,49,MICHIGAN,7,CRYSTAL FLS,46.0873471,-88.159086,2016,3131,Columbidae,14
840,49,MICHIGAN,11,BROCKY LAKE,46.5791318,-87.8440118,2016,3131,Columbidae,7
840,49,MICHIGAN,13,CUNARD,45.8394617,-87.6147779,2016,3131,Columbidae,8
840,49,MICHIGAN,18,SCOTTVILLE,43.9040607,-86.2186454,2016,3131,Columbidae,5
840,49,MICHIGAN,22,NEW TROY,41.8738037,-86.5500939,2016,3131,Columbidae,2
840,49,MICHIGAN,32,NASHVILLE,31.212031,-83.2572724,2016,3131,Columbidae,2
840,49,MICHIGAN,33,COOPERSVILLE,43.0602167,-85.8872149,2016,3131,Columbidae,8
840,49,MICHIGAN,35,GALESBURG,37.5148587,-95.3249979,2016,3131,Columbidae,5
840,49,MICHIGAN,38,REMUS,43.5961937,-85.1256579,2016,3131,Columbidae,2
840,49,MICHIGAN,39,MOTTVILLE,41.7653686,-85.7505398,2016,3131,Columbidae,13
840,49,MICHIGAN,41,PICKFORD,46.2155937,-84.3634339,2016,3131,Columbidae,10
840,49,MICHIGAN,50,NO BRADLEY,43.72725,-84.4869421,2016,3131,Columbidae,8
840,49,MICHIGAN,52,MAPLE RAPIDS,43.0899857,-84.6600329,2016,3131,Columbidae,55
840,49,MICHIGAN,57,ADRIAN,41.9189847,-83.9934149,2016,3131,Columbidae,5
840,49,MICHIGAN,63,JUNIATA,43.3504847,-83.4224989,2016,3131,Columbidae,3
840,49,MICHIGAN,70,DECKERVILLE,43.5141478,-82.674596,2016,3131,Columbidae,3
840,49,MICHIGAN,131,HUNGERFORD,43.7069417,-85.4353239,2016,3131,Columbidae,2
840,49,MICHIGAN,134,BELDING 2,43.1119365,-85.193661,2016,3131,Columbidae,4
840,49,MICHIGAN,165,LAPEER,43.2370751,-83.2549351,2016,3131,Columbidae,1
840,49,MICHIGAN,166,ROCHESTER,42.7553807,-83.1776269,2016,3131,Columbidae,1
840,49,MICHIGAN,907,ALLEGAN WMA,42.6234117,-86.0738369,2016,3131,Columbidae,2
840,50,MINNESOTA,1,MONEY CREEK,43.8139858,-91.6904455,2016,3131,Columbidae,9
840,50,MINNESOTA,3,HARTLAND,42.6793387,-83.3724184,2016,3131,Columbidae,8
840,50,MINNESOTA,4,HUNTLEY,43.7677899,-94.287449,2016,3131,Columbidae,4
840,50,MINNESOTA,6,ASH CREEK,43.5872765,-96.1830378,2016,3131,Columbidae,10
840,50,MINNESOTA,7,MILLVILLE,44.2229204,-92.2705246,2016,3131,Columbidae,27
840,50,MINNESOTA,8,LAKEVILLE,41.6368887,-86.3655159,2016,3131,Columbidae,28
840,50,MINNESOTA,9,MINNETONKA,44.9718866,-93.4716124,2016,3131,Columbidae,4
840,50,MINNESOTA,10,ARLINGTON,44.6299537,-94.0314709,2016,3131,Columbidae,11
840,50,MINNESOTA,11,COURTLAND,34.6030578,-87.2543912,2016,3131,Columbidae,31
840,50,MINNESOTA,12,REDWOOD FALL,44.5288767,-95.1992649,2016,3131,Columbidae,9
840,50,MINNESOTA,15,PRINCETON,33.9394687,-92.5894309,2016,3131,Columbidae,39
840,50,MINNESOTA,16,OSSEO,45.1025755,-93.4714512,2016,3131,Columbidae,20
840,50,MINNESOTA,17,KNAPP,45.1642488,-94.196858,2016,3131,Columbidae,3
840,50,MINNESOTA,18,ST STEPHEN,45.7028381,-94.2849051,2016,3131,Columbidae,11
840,50,MINNESOTA,19,APPLETON,31.2283931,-87.0654001,2016,3131,Columbidae,21
840,50,MINNESOTA,20,GLUEK,45.0215533,-95.432057,2016,3131,Columbidae,6
840,50,MINNESOTA,21,CHOKIO,45.5499007,-96.0968314,2016,3131,Columbidae,35
840,50,MINNESOTA,22,CROMWELL,46.704186,-92.6394206,2016,3131,Columbidae,45
840,50,MINNESOTA,24,MILLE LACS,46.3671876,-93.6014381,2016,3131,Columbidae,11
840,50,MINNESOTA,27,EDWARDS,46.4410069,-95.9888795,2016,3131,Columbidae,10
840,50,MINNESOTA,28,EVERGREEN,46.7456606,-95.4769368,2016,3131,Columbidae,17
840,50,MINNESOTA,29,GLYNDON,46.9200866,-96.6109471,2016,3131,Columbidae,7
840,50,MINNESOTA,30,TENNEY,46.0800609,-96.4727186,2016,3131,Columbidae,10
840,50,MINNESOTA,35,FLOODWOOD,47.0684835,-92.9862729,2016,3131,Columbidae,11
840,50,MINNESOTA,36,ISLAND LAKE,54.61755,-113.43309,2016,3131,Columbidae,5
840,50,MINNESOTA,43,BELTRAMI,47.5136293,-96.6336288,2016,3131,Columbidae,6
840,50,MINNESOTA,50,GRYGLA,48.3032362,-95.5729652,2016,3131,Columbidae,9
840,50,MINNESOTA,54,LE ROY,40.2822428,-88.7460735,2016,3131,Columbidae,24
840,50,MINNESOTA,55,AUSTIN,43.6884582,-93.0194666,2016,3131,Columbidae,1
840,50,MINNESOTA,56,FAIRMONT,43.5872553,-94.307851,2016,3131,Columbidae,2
840,50,MINNESOTA,57,WORTHINGTON,43.5869507,-95.7747889,2016,3131,Columbidae,2
840,50,MINNESOTA,58,FRONTENAC,44.5207119,-92.3452484,2016,3131,Columbidae,13
840,50,MINNESOTA,59,LE CENTER,44.4856298,-93.7073028,2016,3131,Columbidae,13
840,50,MINNESOTA,60,FRANKLIN,44.5014836,-94.8515103,2016,3131,Columbidae,7
840,50,MINNESOTA,62,TYLER,44.1388547,-96.1645301,2016,3131,Columbidae,4
840,50,MINNESOTA,63,BROOK PARK,45.9187187,-93.0208129,2016,3131,Columbidae,12
840,50,MINNESOTA,64,NEW LONDON,45.2573787,-94.8259589,2016,3131,Columbidae,22
840,50,MINNESOTA,65,GLENWOOD,45.5994247,-95.2156759,2016,3131,Columbidae,12
840,50,MINNESOTA,66,CHOKIO NORTH,45.6583777,-96.1336199,2016,3131,Columbidae,23
840,50,MINNESOTA,67,MAHTOWA,46.5918377,-92.7409299,2016,3131,Columbidae,21
840,50,MINNESOTA,70,ASHBY,46.1225194,-95.8646727,2016,3131,Columbidae,1
840,50,MINNESOTA,77,LOCKHART,47.4408422,-96.5804582,2016,3131,Columbidae,11
840,50,MINNESOTA,102,Chatfield 2,43.89763,-92.091025,2016,3131,Columbidae,50
840,50,MINNESOTA,179,NETT LAKE,48.1329177,-93.3426069,2016,3131,Columbidae,4
840,50,MINNESOTA,903,WHITEWATER,44.0565767,-91.9895539,2016,3131,Columbidae,3
840,51,MISSISSIPPI,6,BENTON,37.8002217,-118.5296169,2016,3131,Columbidae,2
840,51,MISSISSIPPI,20,CYBUR,30.7939126,-89.7137542,2016,3131,Columbidae,9
840,51,MISSISSIPPI,104,MOON,34.4218377,-90.4983459,2016,3131,Columbidae,3
840,51,MISSISSIPPI,205,TCHULA 3,33.2231312,-90.097125,2016,3131,Columbidae,3
840,52,MISSOURI,1,DEVENTER,36.8252566,-89.2477946,2016,3131,Columbidae,2
840,52,MISSOURI,7,CP GIRARDEAU,37.3066269,-89.526555,2016,3131,Columbidae,3
840,52,MISSOURI,10,AKERS,37.3759607,-91.5529269,2016,3131,Columbidae,1
840,52,MISSOURI,15,FILLEY,37.7705887,-93.8518459,2016,3131,Columbidae,1
840,52,MISSOURI,25,RENSSELAER,40.9699502,-87.0748779,2016,3131,Columbidae,4
840,52,MISSOURI,27,MADISON,38.5258637,-76.2101023,2016,3131,Columbidae,10
840,52,MISSOURI,29,ROCKINGHAM,39.3300772,-93.8041794,2016,3131,Columbidae,1
840,52,MISSOURI,32,FRAZIER,39.6539807,-94.6654829,2016,3131,Columbidae,5
840,52,MISSOURI,34,STICKLERVILL,40.0661717,-92.4966959,2016,3131,Columbidae,8
840,52,MISSOURI,56,WHITEWATER,44.0565767,-91.9895539,2016,3131,Columbidae,10
840,52,MISSOURI,61,BLAND,38.3512407,-91.8060379,2016,3131,Columbidae,2
840,52,MISSOURI,66,LACLEDE,39.7948327,-93.1267409,2016,3131,Columbidae,4
840,52,MISSOURI,67,KEARNEY,39.3970207,-94.5010299,2016,3131,Columbidae,2
840,52,MISSOURI,68,KIRKSVILLE,40.1681387,-92.5154419,2016,3131,Columbidae,5
840,52,MISSOURI,70,MCFALL,40.1002567,-94.1422189,2016,3131,Columbidae,2
840,52,MISSOURI,122,SEDALIA,38.4464167,-93.2211229,2016,3131,Columbidae,1
840,52,MISSOURI,130,NORBORNE,39.4087287,-93.7397839,2016,3131,Columbidae,2
840,52,MISSOURI,131,CAMERON,40.8602881,-90.5087794,2016,3131,Columbidae,8
840,52,MISSOURI,133,KAHOKA2,40.4712811,-91.7164602,2016,3131,Columbidae,1
840,52,MISSOURI,137,WATSON,40.4657727,-95.2344499,2016,3131,Columbidae,3
840,52,MISSOURI,139,NEW HAMPTON,40.172626,-94.201898,2016,3131,Columbidae,30
840,52,MISSOURI,150,EUGENE,38.322228,-92.36526,2016,3131,Columbidae,3
840,52,MISSOURI,157,DOE RUN,37.671966,-90.558115,2016,3131,Columbidae,1
840,52,MISSOURI,158,BLODGETT,37.039352,-89.528728,2016,3131,Columbidae,2
840,52,MISSOURI,164,HAYTI,36.125139,-89.663654,2016,3131,Columbidae,3
840,53,MONTANA,2,KALISPELL,48.1080187,-114.4619289,2016,3131,Columbidae,19
840,53,MONTANA,4,HAY LAKE,48.9576837,-112.3253929,2016,3131,Columbidae,19
840,53,MONTANA,6,VIRGELLE,48.0610003,-110.3321782,2016,3131,Columbidae,1
840,53,MONTANA,8,HARLEM,48.3824357,-108.7144099,2016,3131,Columbidae,5
840,53,MONTANA,10,GLASGOW,48.2045751,-106.5334326,2016,3131,Columbidae,8
840,53,MONTANA,11,OSWEGO,48.0596931,-105.9946591,2016,3131,Columbidae,2
840,53,MONTANA,12,REDSTONE,48.8382207,-104.8419949,2016,3131,Columbidae,17
840,53,MONTANA,17,GREAT FALLS,47.4941887,-111.2628629,2016,3131,Columbidae,2
840,53,MONTANA,18,HIGHWOOD,47.5054097,-110.8958659,2016,3131,Columbidae,1
840,53,MONTANA,19,LEROY,47.7874097,-109.4150839,2016,3131,Columbidae,5
840,53,MONTANA,28,BOULDER,46.1235467,-111.9188609,2016,3131,Columbidae,39
840,53,MONTANA,29,TWO DOT,46.3295907,-110.0515279,2016,3131,Columbidae,2
840,53,MONTANA,33,FORSYTH,33.0058447,-83.9907256,2016,3131,Columbidae,13
840,53,MONTANA,40,REED POINT,45.7251707,-109.5466543,2016,3131,Columbidae,12
840,53,MONTANA,41,LAUREL,45.5642095,-108.7802397,2016,3131,Columbidae,8
840,53,MONTANA,74,PABLO RES.,47.6601727,-114.1345589,2016,3131,Columbidae,46
840,53,MONTANA,87,WISE RIVER,45.5347235,-113.0794573,2016,3131,Columbidae,3
840,53,MONTANA,97,LIMA,44.5611413,-112.710893,2016,3131,Columbidae,104
840,53,MONTANA,138,WILLOW CREEK 2,45.9146442,-111.763656,2016,3131,Columbidae,5
840,53,MONTANA,304,SHELBY,33.9667056,-90.7664328,2016,3131,Columbidae,3
840,53,MONTANA,306,CHINOOK,51.44452,-110.91913,2016,3131,Columbidae,2
840,53,MONTANA,307,ESTER LAKE,48.086536,-108.170308,2016,3131,Columbidae,1
840,53,MONTANA,310,WOLF POINT,48.073802,-105.538952,2016,3131,Columbidae,19
840,53,MONTANA,311,WESTBY,48.968104,-104.189488,2016,3131,Columbidae,9
840,53,MONTANA,313,WOLF CREEK,47.027033,-112.050625,2016,3131,Columbidae,50
840,53,MONTANA,314,SUN RIVER,47.542278,-111.703118,2016,3131,Columbidae,3
840,53,MONTANA,315,RAYNESFORD,47.34627,-110.812857,2016,3131,Columbidae,1
840,53,MONTANA,318,JORDAN SOUTH,47.190675,-107.222999,2016,3131,Columbidae,9
840,53,MONTANA,320,LINDSAY,47.225122,-105.166186,2016,3131,Columbidae,1
840,53,MONTANA,323,CLANCY,46.481362,-112.006589,2016,3131,Columbidae,7
840,53,MONTANA,324,FREEMAN CREEK,46.881956,-111.358627,2016,3131,Columbidae,13
840,53,MONTANA,901,VICTOR,46.3310791,-114.1724926,2016,3131,Columbidae,40
840,53,MONTANA,907,PRYOR MTN.,45.20504,-108.7538747,2016,3131,Columbidae,40
840,53,MONTANA,908,BULL MTN.,46.1988347,-108.4511499,2016,3131,Columbidae,2
124,56,New Brunswick,2,LAC BAKER,47.26541,-68.71072,2016,3131,Columbidae,13
124,56,New Brunswick,13,ESCUMINAC,46.99828,-64.83911,2016,3131,Columbidae,12
124,56,New Brunswick,15,LAUVERGOT,47.26688,-65.29641,2016,3131,Columbidae,2
124,56,New Brunswick,21,NAPADOGAN,46.40997,-66.9302,2016,3131,Columbidae,5
124,56,New Brunswick,22,MINTO,46.01228,-66.18177,2016,3131,Columbidae,8
124,56,New Brunswick,26,RED BANK,46.95989,-65.79167,2016,3131,Columbidae,19
124,56,New Brunswick,29,RICHIBUCTO,46.73222,-64.96499,2016,3131,Columbidae,10
124,56,New Brunswick,31,JOLICURE,45.86972,-64.29218,2016,3131,Columbidae,5
124,56,New Brunswick,33,OAK HILL,45.33027,-67.42583,2016,3131,Columbidae,22
124,56,New Brunswick,38,PENNFIELD RG,45.08596,-66.65618,2016,3131,Columbidae,4
124,56,New Brunswick,41,HAMPTON,45.63438,-65.79995,2016,3131,Columbidae,13
124,56,New Brunswick,42,PENOBSQUIS,45.76289,-65.04924,2016,3131,Columbidae,7
124,56,New Brunswick,105,ST. ANDRE,47.08097,-67.54301,2016,3131,Columbidae,20
124,56,New Brunswick,125,New Canaan,46.06756,-65.20786,2016,3131,Columbidae,16
840,63,NORTH CAROLINA,2,MERRIMON,34.95713,-76.65516,2016,3131,Columbidae,1
840,63,NORTH CAROLINA,3,MYRTLE GROVE,34.1327657,-77.8775469,2016,3131,Columbidae,10
840,63,NORTH CAROLINA,4,WARDS CORNER,34.5342189,-78.0716243,2016,3131,Columbidae,2
840,63,NORTH CAROLINA,10,SPEED,35.9691437,-77.4434709,2016,3131,Columbidae,17
840,63,NORTH CAROLINA,15,CLIMAX,35.917637,-79.7044966,2016,3131,Columbidae,1
840,63,NORTH CAROLINA,27,COPELAND,36.2898447,-80.6415019,2016,3131,Columbidae,3
840,63,NORTH CAROLINA,28,CALL,36.1431731,-81.1034324,2016,3131,Columbidae,1
840,63,NORTH CAROLINA,101,SUPPLY,33.9225168,-78.2125169,2016,3131,Columbidae,3
840,63,NORTH CAROLINA,106,ROWLAND,34.4715967,-79.2005609,2016,3131,Columbidae,2
840,63,NORTH CAROLINA,116,MOORESVILLE 2,35.8549613,-81.0657464,2016,3131,Columbidae,12
840,63,NORTH CAROLINA,118,WACO,35.3743051,-81.6361686,2016,3131,Columbidae,50
840,63,NORTH CAROLINA,119,SAWMILL,35.678979,-109.2046208,2016,3131,Columbidae,2
840,63,NORTH CAROLINA,123,CALIFORNIA 2,36.3581287,-76.9786679,2016,3131,Columbidae,8
840,63,NORTH CAROLINA,126,EDEN,36.3766523,-79.8498737,2016,3131,Columbidae,2
840,63,NORTH CAROLINA,203,CYPRESS CR,34.7739701,-77.6299645,2016,3131,Columbidae,4
840,63,NORTH CAROLINA,205,MONTAGUE,34.4014777,-78.0548779,2016,3131,Columbidae,15
840,63,NORTH CAROLINA,218,HULLS XROADS,35.5089219,-81.4564775,2016,3131,Columbidae,1
840,63,NORTH CAROLINA,220,MARSHALL,35.939336,-92.442323,2016,3131,Columbidae,2
840,63,NORTH CAROLINA,224,DORTCHES,35.9991587,-77.8356539,2016,3131,Columbidae,2
840,63,NORTH CAROLINA,227,FAIRVIEW,31.2223969,-86.0994295,2016,3131,Columbidae,3
840,63,NORTH CAROLINA,233,ASHLAND,37.1334087,-99.7413179,2016,3131,Columbidae,1
840,63,NORTH CAROLINA,302,SILOAM,33.5197045,-83.0957341,2016,3131,Columbidae,8
840,63,NORTH CAROLINA,310,OSTWALT,35.6825702,-80.8610815,2016,3131,Columbidae,3
840,64,NORTH DAKOTA,1,FORMAN,46.1531849,-97.6746757,2016,3131,Columbidae,2
840,64,NORTH DAKOTA,2,WALCOTT,46.4854717,-97.0100549,2016,3131,Columbidae,15
840,64,NORTH DAKOTA,4,EDGELEY,46.3406907,-98.6828159,2016,3131,Columbidae,13
840,64,NORTH DAKOTA,8,EMERADO,47.9619307,-97.4077439,2016,3131,Columbidae,32
840,64,NORTH DAKOTA,10,WIMBLEDON,47.1679867,-98.4885929,2016,3131,Columbidae,1
840,64,NORTH DAKOTA,17,ROLLA,48.7474635,-99.6133701,2016,3131,Columbidae,168
840,64,NORTH DAKOTA,19,REGAN,47.2727187,-100.5587399,2016,3131,Columbidae,28
840,64,NORTH DAKOTA,24,LORAINE,48.8647667,-101.5405509,2016,3131,Columbidae,4
840,64,NORTH DAKOTA,26,STANLEY,48.2692787,-102.4614329,2016,3131,Columbidae,3
840,64,NORTH DAKOTA,30,BOWMAN,46.198459,-103.431806,2016,3131,Columbidae,8
840,64,NORTH DAKOTA,32,GORHAM,47.2340597,-103.3213579,2016,3131,Columbidae,5
840,64,NORTH DAKOTA,33,ROOSEVELT PK,47.6171277,-103.5450979,2016,3131,Columbidae,18
840,64,NORTH DAKOTA,36,BENTLEY,46.1041487,-102.0608219,2016,3131,Columbidae,47
840,64,NORTH DAKOTA,37,GLEN ULLIN,46.7758047,-101.9283519,2016,3131,Columbidae,2
840,64,NORTH DAKOTA,38,WILD ROSE,48.5899857,-103.0592269,2016,3131,Columbidae,1
840,64,NORTH DAKOTA,39,POWERS LAKE,48.6621167,-102.6906819,2016,3131,Columbidae,14
840,64,NORTH DAKOTA,103,MONTPELIER,40.4066967,-85.2388079,2016,3131,Columbidae,7
840,64,NORTH DAKOTA,113,BOWESMONT 2,48.717625,-97.316075,2016,3131,Columbidae,21
840,64,NORTH DAKOTA,115,Lakota 2,48.02897,-98.433359,2016,3131,Columbidae,4
840,64,NORTH DAKOTA,127,ABERCROMBIE 2,46.42754,-96.75673,2016,3131,Columbidae,21
840,64,NORTH DAKOTA,129,CARSON,46.4874487,-101.4765709,2016,3131,Columbidae,18
840,54,NEBRASKA,6,KENESAW,40.6184587,-98.6673129,2016,3131,Columbidae,9
840,54,NEBRASKA,7,KEARNEY,39.3970207,-94.5010299,2016,3131,Columbidae,1
840,54,NEBRASKA,9,HOLBROOK,40.3070527,-99.9683619,2016,3131,Columbidae,11
840,54,NEBRASKA,11,STRATTON,40.0025497,-101.2298429,2016,3131,Columbidae,1
840,54,NEBRASKA,12,GRETNA,49.10385,-97.84131,2016,3131,Columbidae,4
840,54,NEBRASKA,13,IRVINGTON,41.34351,-96.08125,2016,3131,Columbidae,6
840,54,NEBRASKA,14,SURPRISE,41.1630727,-97.3498079,2016,3131,Columbidae,1
840,54,NEBRASKA,15,RICHLAND,37.937149,-92.441823,2016,3131,Columbidae,3
840,54,NEBRASKA,17,PETERSBURG,56.8076137,-132.9127349,2016,3131,Columbidae,1
840,54,NEBRASKA,20,PAXTON,40.0402279,-120.9961818,2016,3131,Columbidae,4
840,54,NEBRASKA,22,THURSTON,42.1915702,-96.7354923,2016,3131,Columbidae,5
840,54,NEBRASKA,28,JOHNSTOWN,42.5928366,-99.9988861,2016,3131,Columbidae,22
840,54,NEBRASKA,31,KENNEDY,42.6521647,-100.5366606,2016,3131,Columbidae,40
840,54,NEBRASKA,32,TABLE,41.1770247,-100.0548479,2016,3131,Columbidae,1
840,54,NEBRASKA,40,MURRAY LAKE,41.6980247,-103.9868089,2016,3131,Columbidae,16
840,54,NEBRASKA,43,BEREA,42.1806217,-102.7815019,2016,3131,Columbidae,32
840,55,NEVADA,27,HIKO,37.6075607,-115.0336839,2016,3131,Columbidae,6
840,55,NEVADA,29,BEATTY,36.9072027,-116.7617883,2016,3131,Columbidae,8
124,57,Newfoundland and Labrador,3,ST JOHNS,47.58182,-52.6783,2016,3131,Columbidae,13
124,57,Newfoundland and Labrador,9,SHEAVES COVE,48.52782,-59.04093,2016,3131,Columbidae,12
840,58,NEW HAMPSHIRE,3,FITZWILLIAM,42.8007764,-72.1685998,2016,3131,Columbidae,1
840,58,NEW HAMPSHIRE,4,DOVER,39.0295357,-75.4593569,2016,3131,Columbidae,4
840,58,NEW HAMPSHIRE,6,EPSOM,43.1980043,-71.2880123,2016,3131,Columbidae,7
840,58,NEW HAMPSHIRE,7,CONCORD,39.799577,-90.4109104,2016,3131,Columbidae,3
840,58,NEW HAMPSHIRE,13,WALPOLE,43.0263963,-72.3814817,2016,3131,Columbidae,6
840,58,NEW HAMPSHIRE,15,LEMPSTER,43.5045711,-72.1318885,2016,3131,Columbidae,2
840,58,NEW HAMPSHIRE,17,JEFFERSON HL,44.3571867,-71.3885019,2016,3131,Columbidae,4
840,58,NEW HAMPSHIRE,20,STRATFORD,44.6832807,-71.5868762,2016,3131,Columbidae,1
840,59,NEW JERSEY,1,WOODBURY HGT,39.8314157,-75.1462189,2016,3131,Columbidae,46
840,59,NEW JERSEY,5,TOMS RIVER,39.9994195,-74.2280982,2016,3131,Columbidae,7
840,59,NEW JERSEY,18,MIDVALE,41.0726673,-74.2556528,2016,3131,Columbidae,3
840,59,NEW JERSEY,20,BLOOMSBURY,40.6572687,-75.0997599,2016,3131,Columbidae,3
840,59,NEW JERSEY,21,HIGH POINT,41.3073947,-74.6772749,2016,3131,Columbidae,4
840,59,NEW JERSEY,22,DOVER,39.0295357,-75.4593569,2016,3131,Columbidae,21
840,59,NEW JERSEY,30,OCEAN CITY,39.2953945,-74.5547951,2016,3131,Columbidae,9
840,59,NEW JERSEY,109,BENNETT MILL 2,39.6866174,-74.9865325,2016,3131,Columbidae,8
840,59,NEW JERSEY,114,CROTON 2,40.51139,-74.924025,2016,3131,Columbidae,23
840,59,NEW JERSEY,116,RAMSEYSBURG,40.8833603,-75.0589721,2016,3131,Columbidae,1
840,59,NEW JERSEY,204,PEDRICKTOWN 2,39.6959057,-75.468143,2016,3131,Columbidae,7
840,60,NEW MEXICO,2,NAGEESI,36.1676097,-107.7013619,2016,3131,Columbidae,6
840,60,NEW MEXICO,6,GRENVILLE,36.7278337,-103.5750419,2016,3131,Columbidae,14
840,60,NEW MEXICO,8,TORREON,35.7840111,-107.2646486,2016,3131,Columbidae,17
840,60,NEW MEXICO,10,PECOS,35.5743487,-105.6755989,2016,3131,Columbidae,9
840,60,NEW MEXICO,23,ROSWELL,33.0896297,-104.8270959,2016,3131,Columbidae,2
840,60,NEW MEXICO,68,CLOVIS,34.4636507,-103.4776839,2016,3131,Columbidae,4
840,60,NEW MEXICO,80,HOBBS,32.8420703,-103.1450556,2016,3131,Columbidae,53
840,60,NEW MEXICO,154,Angel Fire 2,36.3350337,-105.29169,2016,3131,Columbidae,1
124,65,Nova Scotia,14,JAMES RIVER,45.68557,-62.11729,2016,3131,Columbidae,17
124,65,Nova Scotia,15,Crows Nest,45.193689,-62.00449,2016,3131,Columbidae,2
124,65,Nova Scotia,18,TATAMAGOUCHE,45.71858,-63.55918,2016,3131,Columbidae,1
124,65,Nova Scotia,19,LONDONDERRY,45.42752,-63.70125,2016,3131,Columbidae,2
124,65,Nova Scotia,20,OXFORD,42.4021987,-75.6038909,2016,3131,Columbidae,78
124,65,Nova Scotia,21,N KINGSTON,45.10326,-64.68647,2016,3131,Columbidae,14
124,65,Nova Scotia,23,JOGGINS,45.82071,-64.23027,2016,3131,Columbidae,10
124,65,Nova Scotia,29,GASPEREAU LK,44.73024,-64.61365,2016,3131,Columbidae,4
124,65,Nova Scotia,32,Cape St Marys,44.085686,-66.207746,2016,3131,Columbidae,2
124,65,Nova Scotia,33,BRIDGETOWN,44.75239,-65.46909,2016,3131,Columbidae,16
124,65,Nova Scotia,37,SHELBURNE,43.79576,-65.24425,2016,3131,Columbidae,4
124,65,Nova Scotia,38,BARRINGTON,42.1542181,-88.175335,2016,3131,Columbidae,7
124,65,Nova Scotia,39,UPPER MUSQUODOBOIT,45.007133,-62.723184,2016,3131,Columbidae,6
124,65,Nova Scotia,117,SHUBENACADIE,45.29564,-63.44884,2016,3131,Columbidae,2
124,65,Nova Scotia,228,Musquodoboit Harbour,44.932077,-63.238844,2016,3131,Columbidae,3
840,61,NEW YORK,3,HUNTINGTON,40.8996977,-73.3894649,2016,3131,Columbidae,11
840,61,NEW YORK,8,RHINEBECK,41.9708297,-73.9211209,2016,3131,Columbidae,25
840,61,NEW YORK,13,WESTBROOKVLE,41.5334407,-74.5802369,2016,3131,Columbidae,2
840,61,NEW YORK,19,GHENT,42.3202337,-73.6753829,2016,3131,Columbidae,4
840,61,NEW YORK,24,MERIDALE,42.3973547,-74.9237879,2016,3131,Columbidae,9
840,61,NEW YORK,26,DUANESBURG,42.7318997,-74.1951349,2016,3131,Columbidae,15
840,61,NEW YORK,29,LAURENS,42.5686667,-75.1557779,2016,3131,Columbidae,11
840,61,NEW YORK,30,WHITNEY PT,42.3472227,-75.9366669,2016,3131,Columbidae,1
840,61,NEW YORK,31,COVENTRYVILE,42.3180237,-75.5570359,2016,3131,Columbidae,224
840,61,NEW YORK,33,CORBETTSVILE,42.0123327,-75.8032509,2016,3131,Columbidae,30
840,61,NEW YORK,34,ONEONTA,33.8564625,-86.3813006,2016,3131,Columbidae,3
840,61,NEW YORK,35,ORISKANY FLS,42.9082127,-75.4667379,2016,3131,Columbidae,25
840,61,NEW YORK,37,CAYUGA,42.9526277,-76.6985329,2016,3131,Columbidae,3
840,61,NEW YORK,38,LISLE,42.3591667,-76.0044449,2016,3131,Columbidae,4
840,61,NEW YORK,44,VESTAL CTR,42.0423777,-76.0359509,2016,3131,Columbidae,3
840,61,NEW YORK,45,PHILLIPS CR,42.2779527,-77.9436889,2016,3131,Columbidae,1
840,61,NEW YORK,47,ORLEANS,41.3028427,-123.5376359,2016,3131,Columbidae,15
840,61,NEW YORK,48,RUSHVILLE,42.7793497,-77.2581629,2016,3131,Columbidae,39
840,61,NEW YORK,49,BRANCHPORT,42.6688307,-77.2251299,2016,3131,Columbidae,13
840,61,NEW YORK,52,MT MORRIS,42.6940897,-77.9559089,2016,3131,Columbidae,12
840,61,NEW YORK,53,HAMBURG,42.4424947,-83.8067849,2016,3131,Columbidae,4
840,61,NEW YORK,55,GAINESVILLE,42.6178717,-78.1784059,2016,3131,Columbidae,66
840,61,NEW YORK,56,CATTARAUGUS,42.2769437,-78.8989789,2016,3131,Columbidae,19
840,61,NEW YORK,57,EAST JAVA,42.5957057,-78.3611669,2016,3131,Columbidae,66
840,61,NEW YORK,58,CASTILE,42.6213397,-78.1039209,2016,3131,Columbidae,13
840,61,NEW YORK,59,RANDOLPH,42.0548007,-78.9408579,2016,3131,Columbidae,19
840,61,NEW YORK,62,CHERRY HILL,41.9986107,-79.4116839,2016,3131,Columbidae,18
840,61,NEW YORK,64,ST JOHNSBURG,43.0697617,-78.8506549,2016,3131,Columbidae,34
840,61,NEW YORK,66,BYRON,43.1496467,-78.1154029,2016,3131,Columbidae,7
840,61,NEW YORK,68,PENFIELD,43.1820467,-77.4844579,2016,3131,Columbidae,2
840,61,NEW YORK,69,N VICTORY 2,43.2634447,-76.6878269,2016,3131,Columbidae,11
840,61,NEW YORK,70,CICERO CTR,43.1693497,-76.0264589,2016,3131,Columbidae,26
840,61,NEW YORK,72,PULASKI,37.2325914,-89.2352685,2016,3131,Columbidae,6
840,61,NEW YORK,75,KASOAG,43.4558097,-75.9023929,2016,3131,Columbidae,8
840,61,NEW YORK,76,HIGHMARKET,43.6286487,-75.5571819,2016,3131,Columbidae,11
840,61,NEW YORK,84,NEWCOMB,43.9701127,-74.2428209,2016,3131,Columbidae,1
840,61,NEW YORK,89,SALEM,43.2100377,-73.3079649,2016,3131,Columbidae,5
840,61,NEW YORK,90,ARGYLE,43.2108147,-73.4141749,2016,3131,Columbidae,4
840,61,NEW YORK,91,NORTH EASTON,43.0332427,-73.5108119,2016,3131,Columbidae,32
840,61,NEW YORK,96,OGDENSBURG,44.6984127,-75.4650939,2016,3131,Columbidae,26
840,61,NEW YORK,102,PARISHVILLE,44.5376687,-74.7210849,2016,3131,Columbidae,3
840,61,NEW YORK,103,HOPKINTON,43.1841551,-71.686612,2016,3131,Columbidae,12
840,61,NEW YORK,109,WILLSBORO,44.4433387,-73.4887779,2016,3131,Columbidae,21
840,61,NEW YORK,110,NAPLES,48.5817917,-116.3974909,2016,3131,Columbidae,1
840,61,NEW YORK,111,S VANDALIA,42.0836187,-78.5902949,2016,3131,Columbidae,11
840,61,NEW YORK,113,PHILADELPHIA,44.1487467,-75.7014799,2016,3131,Columbidae,16
840,61,NEW YORK,123,MILFORD,40.6463646,-87.724604,2016,3131,Columbidae,14
840,61,NEW YORK,136,OXFORD 2,42.4021987,-75.6038909,2016,3131,Columbidae,5
840,61,NEW YORK,146,Swain 2,42.5032347,-77.840635,2016,3131,Columbidae,19
840,61,NEW YORK,154,HARRIS HILL,42.9563889,-78.6972222,2016,3131,Columbidae,21
840,61,NEW YORK,199,ST REGIS FLS,44.5249717,-74.4929809,2016,3131,Columbidae,5
840,66,OHIO,2,NAPOLEON,41.3867557,-84.1216579,2016,3131,Columbidae,4
840,66,OHIO,3,KUNKLE,41.6511517,-84.5147859,2016,3131,Columbidae,17
840,66,OHIO,8,N BALTIMORE,41.1974257,-83.7075339,2016,3131,Columbidae,6
840,66,OHIO,15,WAYLAND,41.1788496,-81.002582,2016,3131,Columbidae,26
840,66,OHIO,24,BOTKINS,40.4824537,-84.1838359,2016,3131,Columbidae,15
840,66,OHIO,25,KALIDA,40.9809757,-84.1972889,2016,3131,Columbidae,28
840,66,OHIO,35,NEW DOVER,40.246894,-83.2978987,2016,3131,Columbidae,15
840,66,OHIO,39,LUCERNE,40.466853,-93.338346,2016,3131,Columbidae,4
840,66,OHIO,40,LATTASBURG,40.8786396,-82.1083506,2016,3131,Columbidae,8
840,66,OHIO,42,FULTON,36.4061087,-92.1148009,2016,3131,Columbidae,24
840,66,OHIO,49,DRESDEN,40.1062833,-81.8999167,2016,3131,Columbidae,146
840,66,OHIO,56,SMITHFIELD,40.2788528,-80.7678799,2016,3131,Columbidae,25
840,66,OHIO,64,CUBA,41.0798684,-84.9237731,2016,3131,Columbidae,6
840,66,OHIO,72,RAY,39.1991097,-82.6751939,2016,3131,Columbidae,9
840,66,OHIO,74,OMEGA,39.1527143,-82.9107789,2016,3131,Columbidae,12
840,66,OHIO,75,HEBRON,34.3932407,-83.1032176,2016,3131,Columbidae,40
840,66,OHIO,83,CUMBERLAND,39.8938347,-81.6718899,2016,3131,Columbidae,2
840,66,OHIO,107,LIMESTONE,41.5440972,-83.4580032,2016,3131,Columbidae,8
840,66,OHIO,113,VICKERY,41.4083645,-82.8822098,2016,3131,Columbidae,18
840,66,OHIO,116,HIRAM,33.9086267,-84.7482209,2016,3131,Columbidae,15
840,66,OHIO,148,STONECREEK,40.3076787,-81.5841149,2016,3131,Columbidae,13
840,66,OHIO,150,BIRMINGHAM,33.5909437,-86.6965489,2016,3131,Columbidae,14
840,66,OHIO,168,ENON,39.8881087,-83.9166709,2016,3131,Columbidae,4
840,67,OKLAHOMA,11,BARON,35.8426817,-94.8876259,2016,3131,Columbidae,1
840,67,OKLAHOMA,13,INDIANOLA,35.1738817,-95.7806629,2016,3131,Columbidae,3
840,67,OKLAHOMA,15,BEGGS,35.7262277,-96.1218109,2016,3131,Columbidae,2
840,67,OKLAHOMA,16,CHOCTAW,35.551189,-97.478191,2016,3131,Columbidae,38
840,67,OKLAHOMA,22,PEORIA,36.9292257,-94.6982489,2016,3131,Columbidae,2
840,67,OKLAHOMA,23,WELCH,36.9173437,-95.1256319,2016,3131,Columbidae,5
840,67,OKLAHOMA,28,WAKITA,36.8835027,-97.8572699,2016,3131,Columbidae,1
840,67,OKLAHOMA,34,FELT,36.5876204,-102.7866028,2016,3131,Columbidae,69
840,67,OKLAHOMA,50,GOODWATER,33.9247807,-94.5655139,2016,3131,Columbidae,1
840,67,OKLAHOMA,60,CASHION,35.7693995,-97.6918713,2016,3131,Columbidae,8
840,67,OKLAHOMA,61,SICKLES,35.3485437,-98.3945919,2016,3131,Columbidae,8
840,67,OKLAHOMA,67,JET,36.6516197,-98.1634589,2016,3131,Columbidae,1
840,67,OKLAHOMA,69,CLEAR LAKE,50.01932,-113.39054,2016,3131,Columbidae,5
840,67,OKLAHOMA,70,HOOKER,36.7764517,-101.1876829,2016,3131,Columbidae,33
124,68,Ontario,1,DUNNVILLE,42.89129,-79.33581,2016,3131,Columbidae,1
124,68,Ontario,6,STREETSVILLE,43.55513,-79.76023,2016,3131,Columbidae,16
124,68,Ontario,7,STRATFORD,44.6832807,-71.5868762,2016,3131,Columbidae,26
124,68,Ontario,8,LISTOWEL,43.66958,-80.73789,2016,3131,Columbidae,70
124,68,Ontario,9,GODERICH,43.83194,-81.69966,2016,3131,Columbidae,3
124,68,Ontario,10,AUBURN,38.8992737,-121.0703359,2016,3131,Columbidae,11
124,68,Ontario,11,KEMPTVILLE,44.94773,-75.58905,2016,3131,Columbidae,9
124,68,Ontario,12,ODESSA,44.26177,-76.7748,2016,3131,Columbidae,17
124,68,Ontario,14,PICTON,44.0782,-77.37166,2016,3131,Columbidae,5
124,68,Ontario,15,ROBLIN,44.35414,-77.00984,2016,3131,Columbidae,13
124,68,Ontario,16,FRASERVILLE,44.20242,-78.39805,2016,3131,Columbidae,2
124,68,Ontario,18,ORILLIA,44.72102,-79.64115,2016,3131,Columbidae,5
124,68,Ontario,20,WOODFORD,44.593,-80.74133,2016,3131,Columbidae,1
124,68,Ontario,22,PAISLEY,44.3202,-81.23315,2016,3131,Columbidae,13
124,68,Ontario,29,SARNIA,42.70078,-82.24279,2016,3131,Columbidae,14
124,68,Ontario,39,NORTH BAY,46.27446,-79.0951,2016,3131,Columbidae,2
124,68,Ontario,47,HAILEYBURY,47.47971,-79.71763,2016,3131,Columbidae,2
124,68,Ontario,52,PORT CARLING,45.11569,-79.62024,2016,3131,Columbidae,3
124,68,Ontario,83,MAYHEW,45.47674,-76.62126,2016,3131,Columbidae,1
124,68,Ontario,113,GLEN TAY,44.845,-76.36333,2016,3131,Columbidae,11
124,68,Ontario,117,BIRDSALL,44.2882,-78.07563,2016,3131,Columbidae,13
124,68,Ontario,123,Tayside,45.17213,-74.96719,2016,3131,Columbidae,8
124,68,Ontario,131,EAGLE R-WALDHOF,49.85182,-93.09186,2016,3131,Columbidae,10
124,68,Ontario,141,VERMILLION,46.6854,-81.00911,2016,3131,Columbidae,25
124,68,Ontario,203,STRATHROY,42.94872,-81.65363,2016,3131,Columbidae,34
124,68,Ontario,204,KENT BRIDGE,42.51585,-82.07418,2016,3131,Columbidae,4
124,68,Ontario,208,W. MONTROSE,43.54414,-80.53841,2016,3131,Columbidae,13
124,68,Ontario,209,CARLINGFORD,43.3777,-81.15629,2016,3131,Columbidae,7
124,68,Ontario,210,JAMESTOWN,38.6981367,-89.5364836,2016,3131,Columbidae,11
124,68,Ontario,214,MOIRA,44.35817,-77.40555,2016,3131,Columbidae,4
124,68,Ontario,215,GUNTER,44.88081,-77.54573,2016,3131,Columbidae,2
124,68,Ontario,216,BELLEVILLE,44.26666,-77.36666,2016,3131,Columbidae,7
124,68,Ontario,217,LASSWADE,44.75801,-77.94807,2016,3131,Columbidae,9
124,68,Ontario,219,HOCKLEY,44.02166,-79.96892,2016,3131,Columbidae,6
124,68,Ontario,222,HOPEVILLE,44.06255,-80.5354,2016,3131,Columbidae,26
124,68,Ontario,223,ST.-EUGENE,45.5,-74.46666,2016,3131,Columbidae,1
124,68,Ontario,224,W. OSGOODE,45.17238,-75.55894,2016,3131,Columbidae,1
124,68,Ontario,247,HILLIARDTON,47.98789,-79.77074,2016,3131,Columbidae,2
124,68,Ontario,249,ELLIOT LAKE,46.655374,-82.816968,2016,3131,Columbidae,3
124,68,Ontario,296,WEST BAY,45.82761,-82.16123,2016,3131,Columbidae,8
124,68,Ontario,299,LUTHER,43.89873,-80.63047,2016,3131,Columbidae,12
124,68,Ontario,301,FONTHILL KAME,43.0067,-79.29061,2016,3131,Columbidae,17
124,68,Ontario,303,WALLACETOWN,42.63457,-81.46543,2016,3131,Columbidae,3
124,68,Ontario,304,Martels Corners,45.40365,-75.2704,2016,3131,Columbidae,11
124,68,Ontario,308,ARKELL,43.38382,-80.22835,2016,3131,Columbidae,3
124,68,Ontario,312,GLENDOWER,44.54259,-76.67859,2016,3131,Columbidae,2
124,68,Ontario,313,DESERT LAKE,44.51333,-76.60416,2016,3131,Columbidae,9
124,68,Ontario,314,MARMORA,44.50763,-77.67097,2016,3131,Columbidae,12
124,68,Ontario,316,FENELON FALL,44.7436,-78.75868,2016,3131,Columbidae,7
124,68,Ontario,323,MARTINTOWN,45.15846,-74.71319,2016,3131,Columbidae,3
124,68,Ontario,901,PETROGLYPHS,44.61972,-78.04638,2016,3131,Columbidae,1
840,69,OREGON,8,IMNAHA,45.72192,-116.7795945,2016,3131,Columbidae,3
840,69,OREGON,11,DESCHUTES,44.1598087,-121.2737049,2016,3131,Columbidae,37
840,69,OREGON,35,JOSEPH,45.2809207,-117.2062679,2016,3131,Columbidae,1
840,69,OREGON,43,MT HOOD,45.5378447,-121.4834369,2016,3131,Columbidae,6
840,69,OREGON,46,PENDLETON,45.6793737,-118.7501219,2016,3131,Columbidae,16
840,69,OREGON,61,BLIZZARD GAP,42.0147517,-119.4780049,2016,3131,Columbidae,1
840,69,OREGON,202,CANBY,45.2946161,-122.7018488,2016,3131,Columbidae,27
840,69,OREGON,204,MIKKALO,45.4001548,-120.0255662,2016,3131,Columbidae,37
840,69,OREGON,211,MADRAS,44.6282948,-121.0586193,2016,3131,Columbidae,20
840,69,OREGON,237,SALEM,43.2100377,-73.3079649,2016,3131,Columbidae,21
840,69,OREGON,904,SCAPPOOSE,45.7909747,-122.8698811,2016,3131,Columbidae,2
124,75,Prince Edward Island,5,DUNDAS,46.31964,-62.36825,2016,3131,Columbidae,2
124,75,Prince Edward Island,9,BEDEQUE,46.22164,-63.52906,2016,3131,Columbidae,1
840,72,PENNSYLVANIA,2,ESPYVILLE,41.6375228,-80.4945401,2016,3131,Columbidae,2
840,72,PENNSYLVANIA,3,CLOVER,41.0816642,-80.3392441,2016,3131,Columbidae,17
840,72,PENNSYLVANIA,4,HARMONSBURG,41.7146604,-80.3204561,2016,3131,Columbidae,15
840,72,PENNSYLVANIA,5,FERRIS CRNRS,41.8051937,-79.9582379,2016,3131,Columbidae,12
840,72,PENNSYLVANIA,8,TEEPLEVILLE,41.7528857,-79.9481349,2016,3131,Columbidae,8
840,72,PENNSYLVANIA,12,N PINE GROVE,41.3997727,-79.2031479,2016,3131,Columbidae,10
840,72,PENNSYLVANIA,20,ROULETTE,41.7379447,-78.1593319,2016,3131,Columbidae,10
840,72,PENNSYLVANIA,21,RAMSEY,33.9045937,-92.5979989,2016,3131,Columbidae,2
840,72,PENNSYLVANIA,22,ARNOT,41.6588017,-77.1203469,2016,3131,Columbidae,20
840,72,PENNSYLVANIA,25,ROSECRANS,41.0712247,-77.2939995,2016,3131,Columbidae,1
840,72,PENNSYLVANIA,30,AUSTINVILLE,41.8749574,-76.903319,2016,3131,Columbidae,13
840,72,PENNSYLVANIA,33,BOW BRIDGE,41.9588688,-76.0658601,2016,3131,Columbidae,38
840,72,PENNSYLVANIA,35,WALLER,41.2289,-76.4559998,2016,3131,Columbidae,16
840,72,PENNSYLVANIA,36,MILLVILLE,44.2229204,-92.2705246,2016,3131,Columbidae,20
840,72,PENNSYLVANIA,39,HONESDALE,41.549667,-75.2677314,2016,3131,Columbidae,1
840,72,PENNSYLVANIA,43,SUSQUEHANNA,41.9413666,-75.6172024,2016,3131,Columbidae,13
840,72,PENNSYLVANIA,46,BEAVER,36.8049077,-100.6138549,2016,3131,Columbidae,26
840,72,PENNSYLVANIA,48,PLESANT GROV,40.0771657,-80.3260179,2016,3131,Columbidae,35
840,72,PENNSYLVANIA,49,PARKWOOD,40.6243617,-79.2376019,2016,3131,Columbidae,2
840,72,PENNSYLVANIA,50,KITTANNING,40.8479343,-79.5569899,2016,3131,Columbidae,5
840,72,PENNSYLVANIA,52,WAKENA,40.4897627,-79.4811859,2016,3131,Columbidae,1
840,72,PENNSYLVANIA,53,KAYLOR,40.9651065,-79.7089598,2016,3131,Columbidae,5
840,72,PENNSYLVANIA,56,MARGARET,40.8006168,-79.3662002,2016,3131,Columbidae,5
840,72,PENNSYLVANIA,58,PATTON,40.6677047,-78.5766909,2016,3131,Columbidae,1
840,72,PENNSYLVANIA,59,MARTINSBURG,40.335141,-78.329529,2016,3131,Columbidae,20
840,72,PENNSYLVANIA,61,WILLIAMSBURG,41.6735997,-92.2602299,2016,3131,Columbidae,78
840,72,PENNSYLVANIA,62,GEESEYTOWN,40.4467888,-78.339499,2016,3131,Columbidae,9
840,72,PENNSYLVANIA,63,BALD EAGLE,40.7309987,-78.2178879,2016,3131,Columbidae,72
840,72,PENNSYLVANIA,64,WATERSTREET,40.5712157,-78.1386279,2016,3131,Columbidae,18
840,72,PENNSYLVANIA,67,ST COLLEGE,40.7666107,-77.8241719,2016,3131,Columbidae,38
840,72,PENNSYLVANIA,68,PERU MILLS,40.3760787,-77.6852029,2016,3131,Columbidae,5
840,72,PENNSYLVANIA,69,NAGINEY,40.7019007,-77.5415709,2016,3131,Columbidae,30
840,72,PENNSYLVANIA,70,CLEAR SPRING,38.9190517,-86.1929939,2016,3131,Columbidae,5
840,72,PENNSYLVANIA,71,PINE GR MILL,40.6956947,-77.8942099,2016,3131,Columbidae,25
840,72,PENNSYLVANIA,72,MIFFLINTOWN,40.5680517,-77.3969039,2016,3131,Columbidae,84
840,72,PENNSYLVANIA,76,MIDDLETOWN,40.0330447,-85.5449749,2016,3131,Columbidae,16
840,72,PENNSYLVANIA,79,CARSONVILLE,40.4840637,-76.7674909,2016,3131,Columbidae,45
840,72,PENNSYLVANIA,85,NEW RINGGOLD,40.6899507,-75.9991309,2016,3131,Columbidae,2
840,72,PENNSYLVANIA,86,CLEARFIELD,40.8040057,-75.3435909,2016,3131,Columbidae,15
840,72,PENNSYLVANIA,90,GARRETT,39.8744757,-79.0688169,2016,3131,Columbidae,14
840,72,PENNSYLVANIA,91,WARRENS MILL,39.7803177,-78.9557489,2016,3131,Columbidae,2
840,72,PENNSYLVANIA,107,SUGAR GROVE,41.9931298,-79.1534323,2016,3131,Columbidae,19
840,72,PENNSYLVANIA,127,DUBOISTOWN,41.2137917,-77.0343089,2016,3131,Columbidae,1
840,72,PENNSYLVANIA,132,ELLENTON,41.546735,-76.9628251,2016,3131,Columbidae,1
840,72,PENNSYLVANIA,140,STARLIGHT 2,41.8845178,-75.3145748,2016,3131,Columbidae,25
840,72,PENNSYLVANIA,145,MARS,40.9179173,-80.1512697,2016,3131,Columbidae,1
840,72,PENNSYLVANIA,155,LAUREL HILL,30.965694,-86.455486,2016,3131,Columbidae,2
840,72,PENNSYLVANIA,165,LANDISBURG,40.3267106,-77.3695842,2016,3131,Columbidae,13
840,72,PENNSYLVANIA,166,Doylesburg,40.238028,-77.668064,2016,3131,Columbidae,14
840,72,PENNSYLVANIA,173,ELIZABETHVIL,40.5023917,-76.9345269,2016,3131,Columbidae,2
840,72,PENNSYLVANIA,174,MOUNT JOY,40.1439152,-76.464419,2016,3131,Columbidae,35
840,72,PENNSYLVANIA,177,MT GRETNA 2,40.2721512,-76.4627658,2016,3131,Columbidae,35
840,72,PENNSYLVANIA,178,Brunnerville 2,40.18613,-76.283221,2016,3131,Columbidae,3
840,72,PENNSYLVANIA,181,BRICK TAVERN,40.4295725,-75.2922457,2016,3131,Columbidae,13
840,72,PENNSYLVANIA,182,SCHWENKSVILL,40.2282327,-75.6611919,2016,3131,Columbidae,1
840,72,PENNSYLVANIA,187,DREHERSVILLE 2,40.6352688,-75.9949941,2016,3131,Columbidae,27
840,72,PENNSYLVANIA,192,STONEYBREAK,39.8666007,-78.1771689,2016,3131,Columbidae,5
840,72,PENNSYLVANIA,193,BENDERSVILLE,39.9812621,-77.2339653,2016,3131,Columbidae,11
840,72,PENNSYLVANIA,195,SHREWSBURY,39.7690727,-76.4670089,2016,3131,Columbidae,2
840,72,PENNSYLVANIA,196,JACOBUS,39.9214279,-76.8883173,2016,3131,Columbidae,16
840,72,PENNSYLVANIA,198,CHATHAM,32.2555287,-92.3123249,2016,3131,Columbidae,5
840,72,PENNSYLVANIA,275,LEOLA,40.2005127,-76.1717449,2016,3131,Columbidae,131
840,72,PENNSYLVANIA,901,WYALUSING,41.6174687,-76.2827769,2016,3131,Columbidae,5
840,72,PENNSYLVANIA,907,LOVELTON,41.4430932,-76.2415237,2016,3131,Columbidae,6
124,76,Quebec,1,EARDLEY,45.55411,-76.11098,2016,3131,Columbidae,5
124,76,Quebec,2,GLEN ALMOND,45.70991,-75.54197,2016,3131,Columbidae,5
124,76,Quebec,3,DEPOT DE LAIGLE,46.26955,-76.29326,2016,3131,Columbidae,2
124,76,Quebec,4,LACOLLE,45.08068,-73.33089,2016,3131,Columbidae,7
124,76,Quebec,5,VERCHERES,45.72505,-73.40518,2016,3131,Columbidae,10
124,76,Quebec,9,EAST FARNHAM,45.24805,-72.86899,2016,3131,Columbidae,7
124,76,Quebec,10,HAM SUD,45.72328,-71.47994,2016,3131,Columbidae,10
124,76,Quebec,11,BALDWIN MILL,45.03664,-71.91528,2016,3131,Columbidae,17
124,76,Quebec,12,MANIWAKI,46.36548,-76.02778,2016,3131,Columbidae,10
124,76,Quebec,14,N D DU LAUS,46.03146,-75.57423,2016,3131,Columbidae,3
124,76,Quebec,18,L BISSONNETT,46.03683,-73.89569,2016,3131,Columbidae,11
124,76,Quebec,19,ST CELESTIN,46.16008,-72.39422,2016,3131,Columbidae,3
124,76,Quebec,21,ST ANTOINE,46.6642,-71.56199,2016,3131,Columbidae,10
124,76,Quebec,22,ST-METHODE,46.04703,-71.07816,2016,3131,Columbidae,3
124,76,Quebec,40,STE ANNE POC,47.33844,-70.08943,2016,3131,Columbidae,7
124,76,Quebec,42,N D PORTAGE,47.77933,-69.59863,2016,3131,Columbidae,8
124,76,Quebec,59,MONT JOLI,48.54875,-68.22258,2016,3131,Columbidae,14
124,76,Quebec,69,ST MARCELLIN,48.33798,-68.05156,2016,3131,Columbidae,13
124,76,Quebec,107,Les C?dres,45.3488075,-74.0276096,2016,3131,Columbidae,13
124,76,Quebec,109,RICHMOND,42.7806417,-82.5527429,2016,3131,Columbidae,6
124,76,Quebec,113,L D ECORCES,46.55385,-75.36313,2016,3131,Columbidae,6
124,76,Quebec,120,GENTILLY,46.37695,-72.27544,2016,3131,Columbidae,9
124,76,Quebec,121,ILE DORLEAN,46.88938,-71.07196,2016,3131,Columbidae,4
124,76,Quebec,140,R DES ROCHES,47.1705,-70.75269,2016,3131,Columbidae,7
124,76,Quebec,159,LUCEVILLE,48.56712,-68.31719,2016,3131,Columbidae,46
124,76,Quebec,190,LAC ARNOLD,45.32095,-70.90047,2016,3131,Columbidae,17
124,76,Quebec,204,Henryville,45.13867,-73.18241,2016,3131,Columbidae,11
124,76,Quebec,302,GATINEAU,45.52493,-75.85907,2016,3131,Columbidae,5
124,76,Quebec,309,BOLTON,45.30282,-72.38092,2016,3131,Columbidae,4
124,76,Quebec,314,DELEAGE,46.38083,-75.91864,2016,3131,Columbidae,54
124,76,Quebec,318,BRANDON,46.32684,-73.42698,2016,3131,Columbidae,20
124,76,Quebec,320,SHAWINIGAN,46.60491,-72.81298,2016,3131,Columbidae,4
124,76,Quebec,341,KAMOURASKA,47.54839,-69.42401,2016,3131,Columbidae,10
124,76,Quebec,362,Padoue,48.66746,-67.83768,2016,3131,Columbidae,1
124,76,Quebec,381,Tadoussac,48.14347,-69.71527,2016,3131,Columbidae,4
124,76,Quebec,417,Rivi?re du Milieu,46.55837,-73.81483,2016,3131,Columbidae,9
124,76,Quebec,521,Lyster,46.32389,-71.80553,2016,3131,Columbidae,2
840,77,RHODE ISLAND,3,SHANNOCK,41.3985827,-71.7014909,2016,3131,Columbidae,5
124,79,Saskatchewan,14,MOOSE JAW,50.33853,-105.39733,2016,3131,Columbidae,6
124,79,Saskatchewan,15,PARKBEG,50.48447,-106.27955,2016,3131,Columbidae,2
124,79,Saskatchewan,33,BIGGAR,52.23764,-107.97894,2016,3131,Columbidae,11
124,79,Saskatchewan,40,PARK VALLEY,53.71513,-106.7304,2016,3131,Columbidae,2
124,79,Saskatchewan,116,DENDRON,50.01867,-107.00595,2016,3131,Columbidae,2
124,79,Saskatchewan,120,WILLOWBROOK,51.09238,-102.75534,2016,3131,Columbidae,6
124,79,Saskatchewan,124,BRODERICK,51.56189,-106.63717,2016,3131,Columbidae,1
124,79,Saskatchewan,130,PLEASANTDALE,52.66722,-104.23693,2016,3131,Columbidae,2
124,79,Saskatchewan,132,ABERDEEN,33.8691757,-88.6571809,2016,3131,Columbidae,4
124,79,Saskatchewan,133,ASQUITH,52.23109,-107.40788,2016,3131,Columbidae,13
124,79,Saskatchewan,213,Craven,50.75888,-104.6899,2016,3131,Columbidae,23
124,79,Saskatchewan,217,WHITE BEAR,50.92153,-108.07043,2016,3131,Columbidae,21
124,79,Saskatchewan,225,Donovan,51.6997,-107.13764,2016,3131,Columbidae,20
124,79,Saskatchewan,309,KINCORTH,49.96045,-109.53173,2016,3131,Columbidae,21
124,79,Saskatchewan,402,Mankota,49.45006,-107.48622,2016,3131,Columbidae,2
124,79,Saskatchewan,403,Newton Lake,49.30987,-107.79203,2016,3131,Columbidae,1
124,79,Saskatchewan,405,Divide,49.10171,-109.12272,2016,3131,Columbidae,16
124,79,Saskatchewan,406,Shaunavon,49.30547,-108.42765,2016,3131,Columbidae,17
124,79,Saskatchewan,418,St Victor,49.44552,-105.86176,2016,3131,Columbidae,21
124,79,Saskatchewan,420,Bordeland,49.02875,-105.99056,2016,3131,Columbidae,23
840,80,SOUTH CAROLINA,5,HOLLY HILL,33.3222497,-80.4614109,2016,3131,Columbidae,7
840,80,SOUTH CAROLINA,11,BISHOPVILLE,34.1944419,-80.2141711,2016,3131,Columbidae,35
840,80,SOUTH CAROLINA,117,OWINGS 2,34.7522612,-82.1092506,2016,3131,Columbidae,15
840,81,SOUTH DAKOTA,2,TRIPP,43.284162,-97.8751124,2016,3131,Columbidae,1
840,81,SOUTH DAKOTA,3,HOWARD,33.8481773,-87.5888357,2016,3131,Columbidae,6
840,81,SOUTH DAKOTA,7,WINNER,43.3137817,-99.8703379,2016,3131,Columbidae,2
840,81,SOUTH DAKOTA,9,ROCKYFORD,43.6550387,-102.5111319,2016,3131,Columbidae,31
840,81,SOUTH DAKOTA,10,VOLGA,44.2320836,-96.9486732,2016,3131,Columbidae,6
840,81,SOUTH DAKOTA,11,RAYMOND,44.9067977,-97.9423379,2016,3131,Columbidae,5
840,81,SOUTH DAKOTA,17,WILMOT,43.4568165,-71.8805982,2016,3131,Columbidae,1
840,81,SOUTH DAKOTA,19,BRITTON,45.7331549,-97.7103493,2016,3131,Columbidae,14
840,81,SOUTH DAKOTA,23,LONG LAKE,54.43414,-112.8288,2016,3131,Columbidae,2
840,81,SOUTH DAKOTA,28,VOLUNTEER,44.5118757,-103.1333309,2016,3131,Columbidae,4
840,81,SOUTH DAKOTA,31,HARDING,45.2341239,-103.7823662,2016,3131,Columbidae,1
840,81,SOUTH DAKOTA,32,CEDAR PASS,43.7410071,-101.9591186,2016,3131,Columbidae,2
840,81,SOUTH DAKOTA,35,MAURINE,45.1458023,-102.5581808,2016,3131,Columbidae,7
840,81,SOUTH DAKOTA,36,REVA,45.545678,-103.0327882,2016,3131,Columbidae,4
840,81,SOUTH DAKOTA,37,LODGEPOLE,45.8344327,-102.9426799,2016,3131,Columbidae,11
840,81,SOUTH DAKOTA,44,LACREEK,43.0190774,-101.4921774,2016,3131,Columbidae,10
840,81,SOUTH DAKOTA,705,HAZELRODT,43.7260521,-103.505933,2016,3131,Columbidae,1
840,82,TENNESSEE,1,TIPTONVILLE,36.4175101,-89.4379279,2016,3131,Columbidae,1
840,82,TENNESSEE,6,WHITEVILLE,35.3612207,-89.0787139,2016,3131,Columbidae,4
840,82,TENNESSEE,12,HUMBOLDT,39.6153298,-88.3865649,2016,3131,Columbidae,1
840,82,TENNESSEE,13,POND CREEK,36.1745577,-86.9969029,2016,3131,Columbidae,4
840,82,TENNESSEE,16,WRIGLEY,63.37122,-123.56614,2016,3131,Columbidae,9
840,82,TENNESSEE,17,CAMPBELLSVILLE,35.3492078,-87.1440788,2016,3131,Columbidae,2
840,82,TENNESSEE,23,BRADYVILLE,35.7357596,-86.1676666,2016,3131,Columbidae,2
840,82,TENNESSEE,25,SILVER PT,36.0984567,-85.7051469,2016,3131,Columbidae,3
840,82,TENNESSEE,26,UNION HILL,36.5041157,-85.6700349,2016,3131,Columbidae,1
840,82,TENNESSEE,29,JASPER,33.8168747,-87.1378259,2016,3131,Columbidae,1
840,82,TENNESSEE,33,LOVELL,35.9135129,-84.1514213,2016,3131,Columbidae,12
840,82,TENNESSEE,41,ALLENS BRDGE,36.0465477,-82.9128272,2016,3131,Columbidae,1
840,82,TENNESSEE,130,JONES GAP,35.3018852,-85.1666632,2016,3131,Columbidae,1
840,83,TEXAS,1,LAG ATASCOSA,26.1912547,-97.3519969,2016,3131,Columbidae,40
840,83,TEXAS,7,RANDADO,27.0738442,-98.8220264,2016,3131,Columbidae,5
840,83,TEXAS,16,GEORGE WEST,28.2807187,-98.3175579,2016,3131,Columbidae,1
840,83,TEXAS,25,ROCK ISLAND,29.513077,-96.550258,2016,3131,Columbidae,16
840,83,TEXAS,58,ATHENS,34.0324127,-83.3156813,2016,3131,Columbidae,1
840,83,TEXAS,61,DALLAS,32.7295462,-96.8055652,2016,3131,Columbidae,21
840,83,TEXAS,64,SELDEN,32.1649434,-98.0495578,2016,3131,Columbidae,3
840,83,TEXAS,74,RHOME,33.0581596,-97.460791,2016,3131,Columbidae,4
840,83,TEXAS,75,GAINESVILLE,42.6178717,-78.1784059,2016,3131,Columbidae,23
840,83,TEXAS,86,RANKIN,31.2059844,-101.9691922,2016,3131,Columbidae,1
840,83,TEXAS,92,POST,33.1811653,-101.5601204,2016,3131,Columbidae,11
840,83,TEXAS,93,LAMESA,32.6620464,-101.9652575,2016,3131,Columbidae,2
840,83,TEXAS,94,PLAINS,33.3441307,-102.9569019,2016,3131,Columbidae,16
840,83,TEXAS,97,CIRCLE,65.7907167,-144.0890949,2016,3131,Columbidae,5
840,83,TEXAS,108,FRANKEL CITY,32.1286341,-102.8346237,2016,3131,Columbidae,1
840,83,TEXAS,141,MANOR,30.341063,-97.557639,2016,3131,Columbidae,36
840,83,TEXAS,159,CHANDLER 2,32.2333023,-95.5174446,2016,3131,Columbidae,1
840,83,TEXAS,209,ENCINAL 2,27.9766671,-99.266437,2016,3131,Columbidae,19
840,83,TEXAS,311,PORT ACRES,29.9141577,-94.0432501,2016,3131,Columbidae,5
840,83,TEXAS,315,BRITE,29.0939087,-98.6416779,2016,3131,Columbidae,8
840,83,TEXAS,329,FT. STOCKTON,30.5964387,-102.6068259,2016,3131,Columbidae,3
840,83,TEXAS,337,BRUCEVILLE,31.3255877,-97.2409279,2016,3131,Columbidae,13
840,83,TEXAS,341,STILES,31.5830183,-101.7186781,2016,3131,Columbidae,15
840,83,TEXAS,345,SIERRA BLANC,31.2076027,-105.3339159,2016,3131,Columbidae,7
840,83,TEXAS,346,CANUTILLO,31.846782,-106.6131975,2016,3131,Columbidae,4
840,83,TEXAS,349,MT. SELMAN,32.0682917,-95.2839819,2016,3131,Columbidae,4
840,83,TEXAS,350,WILLS POINT,32.7789408,-96.0240475,2016,3131,Columbidae,3
840,83,TEXAS,351,CLEBURNE,32.3141319,-97.4981958,2016,3131,Columbidae,1
840,83,TEXAS,356,MIDLAND,32.0722749,-101.9269126,2016,3131,Columbidae,41
840,83,TEXAS,359,GREENVILLE,45.4006104,-69.5938347,2016,3131,Columbidae,1
840,83,TEXAS,362,BEAVER CREEK,55.6333333,-132.75,2016,3131,Columbidae,7
840,83,TEXAS,363,GIRARD,33.3563297,-100.6989509,2016,3131,Columbidae,2
840,83,TEXAS,364,DOUGHERTY,33.9192767,-101.0640709,2016,3131,Columbidae,2
840,83,TEXAS,365,PLAINS,33.3441307,-102.9569019,2016,3131,Columbidae,9
840,83,TEXAS,369,CLAYTONVILLE,34.3754727,-101.5755389,2016,3131,Columbidae,42
840,83,TEXAS,371,PANHANDLE,35.3720817,-100.9735949,2016,3131,Columbidae,1
840,83,TEXAS,373,DALHART,35.9930757,-102.5674219,2016,3131,Columbidae,25
840,83,TEXAS,374,TWICHELL,36.4347007,-100.7308439,2016,3131,Columbidae,36
840,83,TEXAS,375,GRUVER,36.2689387,-101.3528969,2016,3131,Columbidae,75
840,83,TEXAS,507,Bayside 3,28.03785,-97.160194,2016,3131,Columbidae,5
840,83,TEXAS,510,KERMIT 2,31.696603,-103.18383,2016,3131,Columbidae,5
840,83,TEXAS,905,LANCE ROSIER BITH,30.2728898,-94.550529,2016,3131,Columbidae,2
840,85,UTAH,102,JOHNSON CAN,41.8929957,-112.2057119,2016,3131,Columbidae,2
840,85,UTAH,153,RANDOLPH,42.0548007,-78.9408579,2016,3131,Columbidae,62
840,85,UTAH,307,HANNA,40.4606587,-110.8925939,2016,3131,Columbidae,3
840,85,UTAH,512,Wellington 3,39.6723067,-110.62786,2016,3131,Columbidae,10
840,87,VERMONT,2,NORTH POWNAL,42.8089741,-73.2805777,2016,3131,Columbidae,2
840,87,VERMONT,5,S READING,43.4717157,-72.5853589,2016,3131,Columbidae,3
840,87,VERMONT,7,POST MILLS,43.8966381,-72.2608612,2016,3131,Columbidae,5
840,87,VERMONT,13,NORTHFLD FLS,44.1638277,-72.6813129,2016,3131,Columbidae,2
840,87,VERMONT,17,HARDWICK,44.5503853,-72.3791513,2016,3131,Columbidae,1
840,87,VERMONT,19,FLETCHER,44.6655427,-72.8904029,2016,3131,Columbidae,8
840,87,VERMONT,22,COLCHESTER,44.5286856,-73.1718258,2016,3131,Columbidae,8
840,87,VERMONT,121,BRISTOL,30.3242578,-85.0052085,2016,3131,Columbidae,4
840,88,VIRGINIA,4,CHURCHVILLE,43.1759107,-77.9620889,2016,3131,Columbidae,5
840,88,VIRGINIA,5,STANLEY,48.2692787,-102.4614329,2016,3131,Columbidae,13
840,88,VIRGINIA,7,EDINBURG,38.8163337,-78.5638129,2016,3131,Columbidae,5
840,88,VIRGINIA,8,JEROME,38.8197554,-78.7489812,2016,3131,Columbidae,3
840,88,VIRGINIA,13,ISOM,37.2138017,-82.4750989,2016,3131,Columbidae,3
840,88,VIRGINIA,42,BRODNAX,36.6079187,-78.0088473,2016,3131,Columbidae,1
840,88,VIRGINIA,102,TAYLORSTOWN 2,39.2649107,-77.584975,2016,3131,Columbidae,1
840,90,WEST VIRGINIA,7,HANOVER,39.9000807,-96.8711409,2016,3131,Columbidae,2
840,90,WEST VIRGINIA,9,WELCH,36.9173437,-95.1256319,2016,3131,Columbidae,2
840,90,WEST VIRGINIA,19,PARADISE,38.5848407,-81.7998809,2016,3131,Columbidae,3
840,90,WEST VIRGINIA,26,CEDARVILLE,41.5295757,-120.1718519,2016,3131,Columbidae,6
840,90,WEST VIRGINIA,31,SUGAR GROVE,41.9931298,-79.1534323,2016,3131,Columbidae,3
840,90,WEST VIRGINIA,37,MOUNDSVILLE,39.9139422,-80.7304852,2016,3131,Columbidae,2
840,90,WEST VIRGINIA,38,MONONGAH,39.4199317,-80.2029429,2016,3131,Columbidae,32
840,90,WEST VIRGINIA,43,SMITHFIELD,40.2788528,-80.7678799,2016,3131,Columbidae,5
840,90,WEST VIRGINIA,46,MEADOWVILLE,39.0940821,-79.935752,2016,3131,Columbidae,10
840,90,WEST VIRGINIA,52,CLINTON,46.7236933,-113.6681583,2016,3131,Columbidae,23
840,90,WEST VIRGINIA,140,MEADLAND,39.1928067,-80.0991062,2016,3131,Columbidae,15
840,90,WEST VIRGINIA,150,SHANGHAI,39.4443357,-78.1386329,2016,3131,Columbidae,2
840,89,WASHINGTON,2,PORT ANGELES,48.1127527,-123.3860549,2016,3131,Columbidae,8
840,89,WASHINGTON,3,WARM BEACH,48.1631507,-122.3354259,2016,3131,Columbidae,9
840,89,WASHINGTON,4,NEWHALEM,48.7004247,-121.2122809,2016,3131,Columbidae,1
840,89,WASHINGTON,14,MOSES LAKE,47.0871717,-119.2576519,2016,3131,Columbidae,24
840,89,WASHINGTON,23,ASOTIN,46.3417127,-117.0559849,2016,3131,Columbidae,9
840,89,WASHINGTON,34,EVERETT,47.9781527,-122.1737439,2016,3131,Columbidae,2
840,89,WASHINGTON,37,QUINCY,47.3151767,-119.8794779,2016,3131,Columbidae,2
840,89,WASHINGTON,38,WILBUR,47.7717347,-118.8944699,2016,3131,Columbidae,17
840,89,WASHINGTON,41,SOUTH ELMA,46.9561757,-123.4427949,2016,3131,Columbidae,8
840,89,WASHINGTON,46,PRESCOTT,34.6437087,-112.4327389,2016,3131,Columbidae,1
840,89,WASHINGTON,50,NIGHTHAWK,48.7556407,-119.6633299,2016,3131,Columbidae,10
840,89,WASHINGTON,57,KEYSTONE,30.0641124,-91.8208203,2016,3131,Columbidae,19
840,89,WASHINGTON,63,POTHOLES,46.9700517,-119.3451239,2016,3131,Columbidae,20
840,89,WASHINGTON,65,POMEROY,39.2701767,-81.8827139,2016,3131,Columbidae,9
840,89,WASHINGTON,70,LAURIER,48.6756907,-118.1161269,2016,3131,Columbidae,5
840,89,WASHINGTON,72,MUKILTEO,47.9220717,-122.3002169,2016,3131,Columbidae,80
840,89,WASHINGTON,79,RAINIER,46.8066477,-122.4157869,2016,3131,Columbidae,3
840,89,WASHINGTON,84,CLOVERLAND,46.2738807,-117.2930749,2016,3131,Columbidae,2
840,89,WASHINGTON,111,CARNATION,47.7443857,-121.9848029,2016,3131,Columbidae,1
840,89,WASHINGTON,164,SULPHUR,46.8232937,-118.6507939,2016,3131,Columbidae,1
840,89,WASHINGTON,182,Scootney Reservoir,46.7665517,-119.04624,2016,3131,Columbidae,7
840,91,WISCONSIN,2,IRON RIVER,46.5232187,-91.4282439,2016,3131,Columbidae,14
840,91,WISCONSIN,5,BAYFIELD,46.7999037,-90.9468609,2016,3131,Columbidae,9
840,91,WISCONSIN,9,HUDSON,40.3052417,-104.6963429,2016,3131,Columbidae,38
840,91,WISCONSIN,10,DRESSER,45.3718767,-92.6673889,2016,3131,Columbidae,30
840,91,WISCONSIN,12,LORAINE,48.8647667,-101.5405509,2016,3131,Columbidae,57
840,91,WISCONSIN,13,CUMBERLAND,39.8938347,-81.6718899,2016,3131,Columbidae,12
840,91,WISCONSIN,14,WEYERHAUSER,45.3129597,-91.4793629,2016,3131,Columbidae,26
840,91,WISCONSIN,15,COUDERAY,45.8737727,-91.2353139,2016,3131,Columbidae,4
840,91,WISCONSIN,16,EXELAND,45.7114417,-91.1942679,2016,3131,Columbidae,40
840,91,WISCONSIN,17,GILMAN,45.1410957,-90.7920749,2016,3131,Columbidae,6
840,91,WISCONSIN,19,PHILLIPS,34.5060197,-96.2103339,2016,3131,Columbidae,2
840,91,WISCONSIN,20,RIB LAKE,45.3240447,-90.0875099,2016,3131,Columbidae,4
840,91,WISCONSIN,22,IRMA,45.3150927,-89.6369409,2016,3131,Columbidae,2
840,91,WISCONSIN,29,WAUSAUKEE,45.4469757,-87.8743129,2016,3131,Columbidae,8
840,91,WISCONSIN,31,ESDAILE,44.6509917,-92.4279399,2016,3131,Columbidae,15
840,91,WISCONSIN,32,COCHRANE,49.05874,-80.86188,2016,3131,Columbidae,27
840,91,WISCONSIN,33,GILMANTON,44.4009957,-91.6793739,2016,3131,Columbidae,33
840,91,WISCONSIN,34,TREMPEALEAU,44.0129837,-91.3711239,2016,3131,Columbidae,28
840,91,WISCONSIN,35,CADOTT,44.9295287,-91.1258789,2016,3131,Columbidae,10
840,91,WISCONSIN,39,STRATFORD,44.6832807,-71.5868762,2016,3131,Columbidae,19
840,91,WISCONSIN,40,WIS RAPIDS,44.4454137,-89.8554319,2016,3131,Columbidae,68
840,91,WISCONSIN,41,STEVENS PT,44.6134037,-89.4892659,2016,3131,Columbidae,2
840,91,WISCONSIN,42,ELDERON,44.7766037,-89.2453309,2016,3131,Columbidae,24
840,91,WISCONSIN,43,SAXEVILLE,44.2134397,-89.0520699,2016,3131,Columbidae,2
840,91,WISCONSIN,44,MANAWA,44.4254667,-88.9513789,2016,3131,Columbidae,22
840,91,WISCONSIN,45,OCONTO FALLS,44.8797447,-88.1726309,2016,3131,Columbidae,9
840,91,WISCONSIN,47,CLINTONVILLE,44.6191537,-88.7788779,2016,3131,Columbidae,13
840,91,WISCONSIN,48,MANITOWOC,44.0520617,-87.7016689,2016,3131,Columbidae,2
840,91,WISCONSIN,49,CASCO,44.5887327,-87.6425339,2016,3131,Columbidae,21
840,91,WISCONSIN,51,VIROQUA,43.5329127,-90.8675449,2016,3131,Columbidae,15
840,91,WISCONSIN,53,NEW LISBON,43.8227657,-90.2094039,2016,3131,Columbidae,64
840,91,WISCONSIN,54,KENDALL,25.6040397,-80.4097679,2016,3131,Columbidae,42
840,91,WISCONSIN,55,N FREEDOM,43.4457507,-89.8669289,2016,3131,Columbidae,23
840,91,WISCONSIN,56,PARDEEVILLE,43.5381577,-89.2274789,2016,3131,Columbidae,37
840,91,WISCONSIN,57,PRINCETON,33.9394687,-92.5894309,2016,3131,Columbidae,31
840,91,WISCONSIN,58,FALL RIVER,43.4580257,-89.0411229,2016,3131,Columbidae,2
840,91,WISCONSIN,59,BROWNSVILLE,35.5377957,-89.3824309,2016,3131,Columbidae,51
840,91,WISCONSIN,61,BEAVER DAM,43.4992847,-88.9008629,2016,3131,Columbidae,4
840,91,WISCONSIN,62,EDEN,36.3766523,-79.8498737,2016,3131,Columbidae,16
840,91,WISCONSIN,63,PT WASHINGTN,43.3759057,-87.8785709,2016,3131,Columbidae,14
840,91,WISCONSIN,64,N ANDOVER,42.8165957,-90.9601049,2016,3131,Columbidae,33
840,91,WISCONSIN,65,HAZEL GREEN,42.5180847,-90.4357819,2016,3131,Columbidae,8
840,91,WISCONSIN,68,HEBRON,34.3932407,-83.1032176,2016,3131,Columbidae,11
840,91,WISCONSIN,69,PARIS,42.6113857,-88.0517639,2016,3131,Columbidae,45
840,91,WISCONSIN,70,RAYMOND,44.9067977,-97.9423379,2016,3131,Columbidae,25
840,91,WISCONSIN,118,STETSONVILLE,45.0884697,-90.5367439,2016,3131,Columbidae,11
840,91,WISCONSIN,146,Omro 2,44.0331367,-88.704253,2016,3131,Columbidae,17
840,91,WISCONSIN,167,VERONA,43.0002617,-89.6668479,2016,3131,Columbidae,7
840,91,WISCONSIN,304,BASHAW,52.52175,-112.85969,2016,3131,Columbidae,10
840,91,WISCONSIN,305,WEIRGOR SPRINGS,45.8488177,-91.3051159,2016,3131,Columbidae,2
840,91,WISCONSIN,306,FLAMBEAU,45.8427177,-90.6226889,2016,3131,Columbidae,2
840,91,WISCONSIN,308,CAVOUR,45.6577778,-88.8205556,2016,3131,Columbidae,1
840,91,WISCONSIN,309,RIVER FALLS,44.9782647,-92.6395959,2016,3131,Columbidae,7
840,91,WISCONSIN,312,BUENA VISTA,35.4779437,-119.2962109,2016,3131,Columbidae,25
840,91,WISCONSIN,313,GRESHAM,44.9221977,-88.9391789,2016,3131,Columbidae,38
840,91,WISCONSIN,314,GRIMMS,44.1095107,-87.8918599,2016,3131,Columbidae,20
840,91,WISCONSIN,315,PRAIRIE DU CHIEN,43.0674397,-91.0779429,2016,3131,Columbidae,9
840,91,WISCONSIN,316,HIGHLAND,41.7522667,-73.9895919,2016,3131,Columbidae,9
840,91,WISCONSIN,317,BRIGGSVILLE,43.5621967,-89.5292049,2016,3131,Columbidae,6
840,91,WISCONSIN,318,KIEL,43.8770447,-88.0415409,2016,3131,Columbidae,76
840,91,WISCONSIN,319,ANNATON,42.9378547,-90.2112029,2016,3131,Columbidae,13
840,91,WISCONSIN,320,BELOIT,39.5666667,-98.169444,2016,3131,Columbidae,26
840,91,WISCONSIN,322,HOLLAND,49.5463,-98.9148,2016,3131,Columbidae,29
840,91,WISCONSIN,421,MUKWONAGO 2,42.9592306,-88.2762261,2016,3131,Columbidae,4
840,92,WYOMING,3,OTTO,44.3749577,-108.1427379,2016,3131,Columbidae,1
840,92,WYOMING,11,NOWOOD,43.5968807,-107.4300839,2016,3131,Columbidae,1
840,92,WYOMING,28,YODER,42.0167727,-104.2862009,2016,3131,Columbidae,2
840,92,WYOMING,35,FRANNIE,44.9692707,-108.6212999,2016,3131,Columbidae,3
840,92,WYOMING,37,LOVELL,35.9135129,-84.1514213,2016,3131,Columbidae,9
840,92,WYOMING,38,MEETEETSE,44.09196,-108.700013,2016,3131,Columbidae,6
840,92,WYOMING,55,CROWHEART,43.2704237,-109.0314339,2016,3131,Columbidae,3
840,92,WYOMING,58,GEBO,43.7997187,-108.2157059,2016,3131,Columbidae,2
840,92,WYOMING,91,LINGLE,42.1325837,-104.4550699,2016,3131,Columbidae,13
840,92,WYOMING,110,CHEYENNE,38.6933497,-102.5906749,2016,3131,Columbidae,5
840,92,WYOMING,111,CHUGWATER,41.7563687,-104.8219149,2016,3131,Columbidae,5
840,92,WYOMING,112,PINE BLUFF,41.2153307,-104.1193009,2016,3131,Columbidae,11
840,92,WYOMING,120,WELCH,36.9173437,-95.1256319,2016,3131,Columbidae,3
840,92,WYOMING,148,SEELY 2,44.9683375,-104.3682667,2016,3131,Columbidae,33
840,92,WYOMING,150,GVNT VALLEY,44.5140157,-104.2504959,2016,3131,Columbidae,6
840,92,WYOMING,250,MOSKEE 2,44.2694606,-104.1752214,2016,3131,Columbidae,6
840,25,FLORIDA,135,FLAMINGO,25.1388716,-80.9335333,2016,3140,Columbidae,3
840,25,FLORIDA,180,CARD SOUND,25.3099469,-80.3928389,2016,3140,Columbidae,6
840,25,FLORIDA,283,SUGARLOAF KEY 2,24.597703,-81.5829559,2016,3140,Columbidae,26
840,2,ALABAMA,1,ST FLORIAN,34.868688,-87.6041417,2016,3160,Columbidae,36
840,2,ALABAMA,4,TRADE,34.0297881,-87.0592352,2016,3160,Columbidae,24
840,2,ALABAMA,7,SWAIM,34.8680404,-86.2030371,2016,3160,Columbidae,30
840,2,ALABAMA,8,PINE GROVE,34.0278089,-85.7110414,2016,3160,Columbidae,21
840,2,ALABAMA,10,MILLERVILLE,33.1913463,-85.9258408,2016,3160,Columbidae,16
840,2,ALABAMA,12,SUNNY EVE,33.6076572,-85.7511714,2016,3160,Columbidae,2
840,2,ALABAMA,13,GREENSPORT,33.8116977,-86.1153789,2016,3160,Columbidae,28
840,2,ALABAMA,14,SMYER LAKE,33.4549551,-86.6010915,2016,3160,Columbidae,15
840,2,ALABAMA,16,HOWARD,33.8481773,-87.5888357,2016,3160,Columbidae,17
840,2,ALABAMA,19,LIBERTY,33.4765537,-88.1712189,2016,3160,Columbidae,14
840,2,ALABAMA,20,RIDERWOOD,32.1307226,-88.3172665,2016,3160,Columbidae,29
840,2,ALABAMA,21,LINDEN,32.2782397,-87.8359539,2016,3160,Columbidae,30
840,2,ALABAMA,24,SPRAGUE,32.1312407,-86.2754989,2016,3160,Columbidae,28
840,2,ALABAMA,25,BILLINGSLEY,32.6594297,-86.7017714,2016,3160,Columbidae,27
840,2,ALABAMA,26,WALLSBORO,32.5890245,-86.1307777,2016,3160,Columbidae,22
840,2,ALABAMA,27,WARRIOR STD,32.3116131,-85.5530853,2016,3160,Columbidae,23
840,2,ALABAMA,28,LANETT,32.8854647,-85.2044589,2016,3160,Columbidae,6
840,2,ALABAMA,29,COTTONTON,32.1473077,-85.0626449,2016,3160,Columbidae,31
840,2,ALABAMA,31,GRANGEBURG,31.0081277,-85.2112631,2016,3160,Columbidae,79
840,2,ALABAMA,32,BRUNDIDGE,31.7165541,-85.8156189,2016,3160,Columbidae,39
840,2,ALABAMA,35,MCLELLAN,30.9977072,-86.8858316,2016,3160,Columbidae,14
840,2,ALABAMA,36,BEATRICE,31.7399574,-87.2090516,2016,3160,Columbidae,15
840,2,ALABAMA,43,BLOCTON,33.1156047,-87.1007539,2016,3160,Columbidae,7
840,2,ALABAMA,45,WHITEHOUSE,34.1311637,-87.7621469,2016,3160,Columbidae,12
840,2,ALABAMA,46,GUNTERSVILLE,34.3142387,-86.4773569,2016,3160,Columbidae,7
840,2,ALABAMA,47,JENA,33.1379607,-87.8205274,2016,3160,Columbidae,19
840,2,ALABAMA,50,WHITEHALL,32.3276808,-86.7118894,2016,3160,Columbidae,42
840,2,ALABAMA,54,FAIRVIEW,31.2223969,-86.0994295,2016,3160,Columbidae,30
840,2,ALABAMA,55,ELAMVILLE,31.6676037,-85.6508719,2016,3160,Columbidae,40
840,2,ALABAMA,57,YOUNGTOWN,34.4236313,-87.3907904,2016,3160,Columbidae,10
840,2,ALABAMA,58,MENTONE,34.5810567,-85.565583,2016,3160,Columbidae,20
840,2,ALABAMA,59,CARROLLTON,33.2811827,-88.0092154,2016,3160,Columbidae,10
840,2,ALABAMA,60,HOLT,33.2638251,-87.4241383,2016,3160,Columbidae,2
840,2,ALABAMA,63,ROCK CHAPEL,32.4128107,-87.5381089,2016,3160,Columbidae,72
840,2,ALABAMA,72,ELKMONT,34.9292307,-86.9887629,2016,3160,Columbidae,58
840,2,ALABAMA,73,WOODVILLE,34.9895137,-86.0671689,2016,3160,Columbidae,33
840,2,ALABAMA,102,COURTLAND,34.6030578,-87.2543912,2016,3160,Columbidae,52
840,2,ALABAMA,105,BROOKSVILLE,34.2126918,-86.4734413,2016,3160,Columbidae,33
840,2,ALABAMA,109,LAKEVIEW,34.3086241,-85.9323092,2016,3160,Columbidae,25
840,2,ALABAMA,111,CHOCCOLOCCO,33.6296357,-85.7466579,2016,3160,Columbidae,18
840,2,ALABAMA,141,ALABAMA PT 2,30.2816323,-87.5183917,2016,3160,Columbidae,77
840,2,ALABAMA,156,KYMULGA,33.2905307,-86.3312989,2016,3160,Columbidae,18
840,2,ALABAMA,162,Borden Springs 2,33.9413322,-85.450491,2016,3160,Columbidae,19
840,2,ALABAMA,201,VINA,34.2884067,-88.0675579,2016,3160,Columbidae,23
840,2,ALABAMA,204,STEVENSON,34.7575557,-85.8594579,2016,3160,Columbidae,17
840,2,ALABAMA,205,VERNON,33.6853138,-88.1671198,2016,3160,Columbidae,15
840,2,ALABAMA,208,TALLADEGA,33.3180161,-86.1573541,2016,3160,Columbidae,34
840,2,ALABAMA,209,WEDOWEE,33.1844368,-85.464604,2016,3160,Columbidae,25
840,2,ALABAMA,210,GASTONBURG,32.1930088,-87.3792753,2016,3160,Columbidae,40
840,2,ALABAMA,211,AUTAUGAVILLE,32.4860839,-86.5697685,2016,3160,Columbidae,3
840,2,ALABAMA,212,SEALE,32.5033347,-85.2532189,2016,3160,Columbidae,14
840,2,ALABAMA,213,CITRONELLE,31.1365731,-88.2207774,2016,3160,Columbidae,18
840,2,ALABAMA,215,HELICON,31.9052647,-86.1853409,2016,3160,Columbidae,10
840,2,ALABAMA,216,EUFAULA,31.7296264,-85.2558091,2016,3160,Columbidae,48
840,2,ALABAMA,218,BAY MINETTE,30.803493,-87.6374375,2016,3160,Columbidae,5
124,4,Alberta,1,SEVEN PERSON,49.93222,-110.84452,2016,3160,Columbidae,12
124,4,Alberta,2,BOW ISLAND,49.87324,-111.4102,2016,3160,Columbidae,34
124,4,Alberta,3,MILK RIVER,49.08995,-112.39699,2016,3160,Columbidae,4
124,4,Alberta,4,FORT MACLEOD,49.81509,-113.56982,2016,3160,Columbidae,2
124,4,Alberta,6,BINDLOSS,50.74668,-110.25869,2016,3160,Columbidae,16
124,4,Alberta,9,BUFFALO HILL,50.60147,-113.02852,2016,3160,Columbidae,3
124,4,Alberta,11,CEREAL,51.00887,-110.7956,2016,3160,Columbidae,7
124,4,Alberta,13,ROWLEY,51.77818,-112.64694,2016,3160,Columbidae,2
124,4,Alberta,20,HALKIRK,52.17208,-112.33861,2016,3160,Columbidae,3
124,4,Alberta,22,RAVEN,52.02799,-114.47782,2016,3160,Columbidae,11
124,4,Alberta,26,DERWENT,53.49666,-110.86644,2016,3160,Columbidae,2
124,4,Alberta,28,LINDBROOK,53.33769,-112.78208,2016,3160,Columbidae,2
124,4,Alberta,101,MANYBERRIES,49.26127,-110.69079,2016,3160,Columbidae,4
124,4,Alberta,107,WARDLOW,50.92139,-111.11275,2016,3160,Columbidae,2
124,4,Alberta,109,MAZEPPA,50.42635,-113.82728,2016,3160,Columbidae,7
124,4,Alberta,111,ESTHER,51.44533,-110.38028,2016,3160,Columbidae,8
124,4,Alberta,112,HEMARUKA,51.57551,-111.20079,2016,3160,Columbidae,6
124,4,Alberta,113,DOWLING LAKE,51.95441,-112.13115,2016,3160,Columbidae,5
124,4,Alberta,114,SHEEP COULEE,51.56148,-113.89621,2016,3160,Columbidae,3
124,4,Alberta,115,DIDSBURY,51.54794,-114.21268,2016,3160,Columbidae,11
124,4,Alberta,136,BEAVERDAM,54.18052,-110.30494,2016,3160,Columbidae,1
124,4,Alberta,203,KIPP COULEE,49.38423,-112.65106,2016,3160,Columbidae,9
124,4,Alberta,204,TWIN BUTTE,49.26174,-113.65683,2016,3160,Columbidae,8
124,4,Alberta,208,ENCHANT,50.16448,-112.31428,2016,3160,Columbidae,9
124,4,Alberta,209,ENSIGN,50.48464,-113.39021,2016,3160,Columbidae,5
124,4,Alberta,210,LONGVIEW,50.51364,-114.2469,2016,3160,Columbidae,3
124,4,Alberta,211,ACADIA VALLY,51.35788,-110.19278,2016,3160,Columbidae,1
124,4,Alberta,212,SPONDIN,51.76553,-111.51697,2016,3160,Columbidae,2
124,4,Alberta,214,KATHYRN,51.4154,-113.7321,2016,3160,Columbidae,8
124,4,Alberta,215,GHOST LAKE,51.21046,-114.7631,2016,3160,Columbidae,2
124,4,Alberta,227,LAKE ELIZA,53.77624,-111.24257,2016,3160,Columbidae,1
124,4,Alberta,229,CALMAR,53.3377,-113.85339,2016,3160,Columbidae,1
124,4,Alberta,302,LEGEND,49.75642,-111.51741,2016,3160,Columbidae,20
124,4,Alberta,304,SUMMERVIEW,49.74948,-113.78431,2016,3160,Columbidae,3
124,4,Alberta,306,Roseglen,50.55749,-110.32547,2016,3160,Columbidae,4
124,4,Alberta,307,STEVEVILLE,50.93578,-111.86568,2016,3160,Columbidae,11
124,4,Alberta,309,CLEAR LAKE,50.01932,-113.39054,2016,3160,Columbidae,19
124,4,Alberta,310,CHAIN LAKES,50.27017,-114.20751,2016,3160,Columbidae,1
124,4,Alberta,311,CHINOOK,51.44452,-110.91913,2016,3160,Columbidae,6
124,4,Alberta,312,OAKLAND LAKE,51.41613,-111.47615,2016,3160,Columbidae,1
124,4,Alberta,313,DOROTHY,51.32885,-112.04431,2016,3160,Columbidae,3
124,4,Alberta,315,LOCHEND LAKE,51.32922,-114.25969,2016,3160,Columbidae,3
124,4,Alberta,404,TROUT CREEK,49.875772,-114.079114,2016,3160,Columbidae,1
124,4,Alberta,407,Lake Newell,50.56388,-111.84916,2016,3160,Columbidae,6
124,4,Alberta,412,Blood Indian Resevoi,51.27059,-111.19086,2016,3160,Columbidae,1
124,4,Alberta,501,Rolling Hills,50.08913,-111.56814,2016,3160,Columbidae,9
124,4,Alberta,508,BASSANO,50.83397,-112.45127,2016,3160,Columbidae,20
124,4,Alberta,511,Buffalo,50.765188,-110.673829,2016,3160,Columbidae,9
124,4,Alberta,512,Onefour,49.10149,-110.56255,2016,3160,Columbidae,10
124,4,Alberta,608,New Majorville,50.60144,-112.99408,2016,3160,Columbidae,10
124,4,Alberta,928,ELK ISLAND,53.71625,-112.81534,2016,3160,Columbidae,3
840,6,ARIZONA,9,FLAGSTAFF,35.3950617,-111.5777809,2016,3160,Columbidae,3
840,6,ARIZONA,12,OATMAN,34.9859877,-114.4831159,2016,3160,Columbidae,8
840,6,ARIZONA,13,WIKIEUP,34.7270747,-113.9188229,2016,3160,Columbidae,4
840,6,ARIZONA,14,PRESCOTT,34.6437087,-112.4327389,2016,3160,Columbidae,32
840,6,ARIZONA,20,NEW RIVER,33.7034749,-112.2723363,2016,3160,Columbidae,53
840,6,ARIZONA,24,LAGUNA,32.8332815,-114.3988546,2016,3160,Columbidae,72
840,6,ARIZONA,25,DATELAND,32.9285617,-113.5413359,2016,3160,Columbidae,157
840,6,ARIZONA,28,POMERENE,32.0343407,-110.3031159,2016,3160,Columbidae,37
840,6,ARIZONA,29,SAN SIMON,32.4996877,-109.3368449,2016,3160,Columbidae,11
840,6,ARIZONA,32,PATAGONIA,31.5175977,-110.7949529,2016,3160,Columbidae,31
840,6,ARIZONA,51,TOROWEAP,36.2863797,-113.0649869,2016,3160,Columbidae,26
840,6,ARIZONA,56,RIVIERA,35.1226722,-114.582156,2016,3160,Columbidae,5
840,6,ARIZONA,57,ANTARES,35.4272901,-113.8087941,2016,3160,Columbidae,2
840,6,ARIZONA,58,WILLIAMS,35.0556327,-112.2188339,2016,3160,Columbidae,2
840,6,ARIZONA,59,MAINE,35.1634107,-111.9475859,2016,3160,Columbidae,2
840,6,ARIZONA,63,ALAMO RES.,34.2318174,-113.5975476,2016,3160,Columbidae,16
840,6,ARIZONA,65,TONTO VILL.,34.3566847,-111.1008299,2016,3160,Columbidae,19
840,6,ARIZONA,66,FOREST LAKES,34.7,-110.7666667,2016,3160,Columbidae,9
840,6,ARIZONA,68,CIBOLA LAKE,33.2314477,-114.668276,2016,3160,Columbidae,35
840,6,ARIZONA,69,GILA BEND,33.2869987,-112.9375459,2016,3160,Columbidae,16
840,6,ARIZONA,71,BARTLETT RES,33.8177037,-111.6398389,2016,3160,Columbidae,11
840,6,ARIZONA,74,ARABY,32.8548017,-114.4452209,2016,3160,Columbidae,92
840,6,ARIZONA,78,REDINGTON,32.5434377,-110.5053099,2016,3160,Columbidae,42
840,6,ARIZONA,80,CABEZA PRIET,32.4009815,-112.9321083,2016,3160,Columbidae,24
840,6,ARIZONA,81,AMADO,31.7120327,-111.0671459,2016,3160,Columbidae,24
840,6,ARIZONA,82,SAHUARITA,31.9576267,-110.9446259,2016,3160,Columbidae,4
840,6,ARIZONA,83,MCNEAL,31.6464055,-109.4732045,2016,3160,Columbidae,33
840,6,ARIZONA,103,KAIBITO,36.6095467,-111.0768659,2016,3160,Columbidae,1
840,6,ARIZONA,107,PEACH SPRING,35.5541565,-113.3760172,2016,3160,Columbidae,2
840,6,ARIZONA,108,SELIGMAN,35.2307957,-112.5859679,2016,3160,Columbidae,17
840,6,ARIZONA,115,HAPPY JACK,34.8379964,-111.4382855,2016,3160,Columbidae,11
840,6,ARIZONA,121,CASA GRANDE,33.0385437,-111.3789069,2016,3160,Columbidae,23
840,6,ARIZONA,122,CARR MTN,33.5656117,-110.9464649,2016,3160,Columbidae,8
